{"type": "FeatureCollection", "features": [{"type":"Feature","geometry":{"type":"Point","coordinates":[-87.91609,43.04362]},"properties":{"date":"2005-09-08","tour":"A Bigger Bang","shows":"1","city":"Milwaukee","country":"US","venue":"Bradley Center","created_at":"2012-11-13T00:00:00Z","updated_at":"2012-11-26T00:00:00Z","tour_id":"21","longitude":"-87.91609","latitude":"43.04362","cartodb_id":18}},{"type":"Feature","geometry":{"type":"Point","coordinates":[-81.4693,41.50795]},"properties":{"date":"1966-06-25","tour":"The Rolling Stones American Tour 1966","shows":"1","city":"Cleveland","country":"US","venue":"Arena","created_at":"2012-11-13T00:00:00Z","updated_at":"2012-11-27T00:00:00Z","tour_id":"13","longitude":"-81.4693","latitude":"41.50795","cartodb_id":279}},{"type":"Feature","geometry":{"type":"Point","coordinates":[2.32829,48.87009]},"properties":{"date":"1995-07-03","tour":"Voodoo Lounge Tour","shows":"1","city":"Paris","country":"\tFrance","venue":"Olympia","created_at":"2012-11-13T00:00:00Z","updated_at":"2012-11-26T00:00:00Z","tour_id":"30","longitude":"2.32829","latitude":"48.8700905","cartodb_id":857}},{"type":"Feature","geometry":{"type":"Point","coordinates":[-118.34364,33.9599]},"properties":{"date":"2006-03-06","tour":"A Bigger Bang","shows":"1","city":"Inglewood","country":"US","venue":"The Forum","created_at":"2012-11-13T00:00:00Z","updated_at":"2012-11-26T00:00:00Z","tour_id":"21","longitude":"-118.34364","latitude":"33.9599","cartodb_id":1212}},{"type":"Feature","geometry":{"type":"Point","coordinates":[-71.62814,42.32713]},"properties":{"date":"1965-04-30","tour":"The Rolling Stones 1st American Tour 1965","shows":"1","city":"Worcester","country":"US","venue":"Memorial Auditorium","created_at":"2012-11-13T00:00:00Z","updated_at":"2012-11-27T00:00:00Z","tour_id":"3","longitude":"-71.62814","latitude":"42.32713","cartodb_id":1}},{"type":"Feature","geometry":{"type":"Point","coordinates":[-73.75028,42.65442]},"properties":{"date":"1965-04-29","tour":"The Rolling Stones 1st American Tour 1965","shows":"2","city":"Albany","country":"US","venue":"Palace Theatre","created_at":"2012-11-13T00:00:00Z","updated_at":"2012-11-27T00:00:00Z","tour_id":"3","longitude":"-73.75028","latitude":"42.65442","cartodb_id":2}},{"type":"Feature","geometry":{"type":"Point","coordinates":[-76.47442,42.44854]},"properties":{"date":"1965-10-30","tour":"The Rolling Stones 2nd American Tour 1965","shows":"1","city":"Ithaca","country":"US","venue":"Cornell University","created_at":"2012-11-13T00:00:00Z","updated_at":"2012-11-27T00:00:00Z","tour_id":"28","longitude":"-76.47442","latitude":"42.44854","cartodb_id":3}},{"type":"Feature","geometry":{"type":"Point","coordinates":[-80.79723,35.20433]},"properties":{"date":"1965-11-15","tour":"The Rolling Stones 2nd American Tour 1965","shows":"1","city":"Charlotte","country":"US","venue":"Coliseum","created_at":"2012-11-13T00:00:00Z","updated_at":"2012-11-27T00:00:00Z","tour_id":"28","longitude":"-80.79723","latitude":"35.20433","cartodb_id":4}},{"type":"Feature","geometry":{"type":"Point","coordinates":[-70.93575,42.48672]},"properties":{"date":"1966-06-24","tour":"The Rolling Stones American Tour 1966","shows":"1","city":"Lynn","country":"US","venue":"Manning Bowl","created_at":"2012-11-13T00:00:00Z","updated_at":"2012-11-27T00:00:00Z","tour_id":"13","longitude":"-70.93575","latitude":"42.48672","cartodb_id":5}},{"type":"Feature","geometry":{"type":"Point","coordinates":[-122.33161,47.45882]},"properties":{"date":"1966-07-20","tour":"The Rolling Stones American Tour 1966","shows":"1","city":"Seattle","country":"US","venue":"Center Coliseum","created_at":"2012-11-13T00:00:00Z","updated_at":"2012-11-27T00:00:00Z","tour_id":"13","longitude":"-122.33161","latitude":"47.45882","cartodb_id":6}},{"type":"Feature","geometry":{"type":"Point","coordinates":[-105.09595,40.57649]},"properties":{"date":"1969-11-07","tour":"The Rolling Stones American Tour 1969","shows":"1","city":"Fort Collins","country":"US","venue":"Moby Arena","created_at":"2012-11-13T00:00:00Z","updated_at":"2012-11-27T00:00:00Z","tour_id":"18","longitude":"-105.0959465","latitude":"40.5764946","cartodb_id":7}},{"type":"Feature","geometry":{"type":"Point","coordinates":[-122.7982,49.28521]},"properties":{"date":"1972-06-03","tour":"The Rolling Stones American Tour 1972","shows":"1","city":"Vancouver","country":"\tCanada","venue":"Pacific Coliseum","created_at":"2012-11-13T00:00:00Z","updated_at":"2012-11-27T00:00:00Z","tour_id":"35","longitude":"-122.7982","latitude":"49.28521","cartodb_id":8}},{"type":"Feature","geometry":{"type":"Point","coordinates":[-81.45458,41.04038]},"properties":{"date":"1972-07-11","tour":"The Rolling Stones American Tour 1972","shows":"1","city":"Akron","country":"US","venue":"Rubber Bowl","created_at":"2012-11-13T00:00:00Z","updated_at":"2012-11-27T00:00:00Z","tour_id":"35","longitude":"-81.4545802","latitude":"41.0403772","cartodb_id":9}},{"type":"Feature","geometry":{"type":"Point","coordinates":[-91.09963,30.41301]},"properties":{"date":"1975-06-01","tour":"The Rolling Stones Tour of the Americas '75","shows":"2","city":"Baton Rouge","country":"\tUnited States","venue":"LSU Assembly Center","created_at":"2012-11-13T00:00:00Z","updated_at":"2012-11-27T00:00:00Z","tour_id":"8","longitude":"-91.09963","latitude":"30.41301","cartodb_id":10}},{"type":"Feature","geometry":{"type":"Point","coordinates":[-122.41964,37.77712]},"properties":{"date":"1975-07-15","tour":"The Rolling Stones Tour of the Americas '75","shows":"1","city":"San Francisco","country":"US","venue":"Cow Palace","created_at":"2012-11-13T00:00:00Z","updated_at":"2012-11-27T00:00:00Z","tour_id":"8","longitude":"-122.41964","latitude":"37.77712","cartodb_id":11}},{"type":"Feature","geometry":{"type":"Point","coordinates":[-81.86146,28.15737]},"properties":{"date":"1978-06-10","tour":"The Rolling Stones US Tour 1978","shows":"1","city":"Lakeland","country":"\tUnited States","venue":"Lakeland Civic Center","created_at":"2012-11-13T00:00:00Z","updated_at":"2012-11-27T00:00:00Z","tour_id":"2","longitude":"-81.86146","latitude":"28.15737","cartodb_id":12}},{"type":"Feature","geometry":{"type":"Point","coordinates":[-105.26512,40.00821]},"properties":{"date":"1978-07-16","tour":"The Rolling Stones US Tour 1978","shows":"1","city":"Boulder","country":"US","venue":"Folsom Field","created_at":"2012-11-13T00:00:00Z","updated_at":"2012-11-27T00:00:00Z","tour_id":"2","longitude":"-105.26512","latitude":"40.00821","cartodb_id":13}},{"type":"Feature","geometry":{"type":"Point","coordinates":[-81.74912,41.40239]},"properties":{"date":"1981-11-16","tour":"The Rolling Stones American Tour 1981","shows":"1","city":"Cleveland","country":"US","venue":"Richfield Coliseum","created_at":"2012-11-13T00:00:00Z","updated_at":"2012-11-27T00:00:00Z","tour_id":"32","longitude":"-81.74912","latitude":"41.40239","cartodb_id":14}},{"type":"Feature","geometry":{"type":"Point","coordinates":[-122.19675,37.79497]},"properties":{"date":"1999-01-25","tour":"No Security Tour","shows":"1","city":"Oakland","country":"\tUnited States","venue":"Oakland Arena","created_at":"2012-11-13T00:00:00Z","updated_at":"2012-11-27T00:00:00Z","tour_id":"26","longitude":"-122.19675","latitude":"37.79497","cartodb_id":15}},{"type":"Feature","geometry":{"type":"Point","coordinates":[-87.99385,43.16188]},"properties":{"date":"1999-02-19","tour":"No Security Tour","shows":"1","city":"Milwaukee","country":"US","venue":"Bradley Center","created_at":"2012-11-13T00:00:00Z","updated_at":"2012-11-27T00:00:00Z","tour_id":"26","longitude":"-87.99385","latitude":"43.16188","cartodb_id":16}},{"type":"Feature","geometry":{"type":"Point","coordinates":[139.6582,35.46067]},"properties":{"date":"1995-03-14","tour":"Voodoo Lounge Tour","shows":"1","city":"Tokyo","country":"\tJapan","venue":"Tokyo Dome","created_at":"2012-11-13T00:00:00Z","updated_at":"2012-11-26T00:00:00Z","tour_id":"30","longitude":"139.658203125","latitude":"35.4606699514953","cartodb_id":17}},{"type":"Feature","geometry":{"type":"Point","coordinates":[-0.14524,51.49623]},"properties":{"date":"1963-09-29","tour":"The Rolling Stones British Tour 1963","shows":"2","city":"London","country":"England","venue":"New Victoria Theatre","created_at":"2012-11-13T00:00:00Z","updated_at":"2012-11-26T00:00:00Z","tour_id":"7","longitude":"-0.145235","latitude":"51.496235","cartodb_id":19}},{"type":"Feature","geometry":{"type":"Point","coordinates":[-0.17353,51.54209]},"properties":{"date":"1963-10-01","tour":"The Rolling Stones British Tour 1963","shows":"2","city":"London","country":"England","venue":"Odeon Theatre","created_at":"2012-11-13T00:00:00Z","updated_at":"2012-11-26T00:00:00Z","tour_id":"7","longitude":"-0.173533","latitude":"51.542094","cartodb_id":20}},{"type":"Feature","geometry":{"type":"Point","coordinates":[-0.05446,51.55614]},"properties":{"date":"1963-10-02","tour":"The Rolling Stones British Tour 1963","shows":"2","city":"London","country":"England","venue":"Regal Theatre","created_at":"2012-11-13T00:00:00Z","updated_at":"2012-11-26T00:00:00Z","tour_id":"7","longitude":"-0.05446","latitude":"51.5561409","cartodb_id":21}},{"type":"Feature","geometry":{"type":"Point","coordinates":[0.70514,51.5404]},"properties":{"date":"1963-10-03","tour":"The Rolling Stones British Tour 1963","shows":"2","city":"Southend-on-Sea","country":"England","venue":"Odeon Theatre","created_at":"2012-11-13T00:00:00Z","updated_at":"2012-11-26T00:00:00Z","tour_id":"7","longitude":"0.70514","latitude":"51.5404","cartodb_id":22}},{"type":"Feature","geometry":{"type":"Point","coordinates":[-122.19388,37.75704]},"properties":{"date":"1994-10-29","tour":"Voodoo Lounge Tour","shows":"1","city":"Oakland","country":"US","venue":"Oakland Coliseum","created_at":"2012-11-13T00:00:00Z","updated_at":"2012-11-26T00:00:00Z","tour_id":"30","longitude":"-122.19388","latitude":"37.75704","cartodb_id":787}},{"type":"Feature","geometry":{"type":"Point","coordinates":[-0.57836,51.23752]},"properties":{"date":"1963-10-04","tour":"The Rolling Stones British Tour 1963","shows":"2","city":"Guildford","country":"England","venue":"Odeon Theatre","created_at":"2012-11-13T00:00:00Z","updated_at":"2012-11-26T00:00:00Z","tour_id":"7","longitude":"-0.57836","latitude":"51.23752","cartodb_id":23}},{"type":"Feature","geometry":{"type":"Point","coordinates":[-0.3989,51.65797]},"properties":{"date":"1963-10-05","tour":"The Rolling Stones British Tour 1963","shows":"2","city":"Watford","country":"England","venue":"Gaumont Theatre","created_at":"2012-11-13T00:00:00Z","updated_at":"2012-11-26T00:00:00Z","tour_id":"7","longitude":"-0.3989","latitude":"51.65797","cartodb_id":24}},{"type":"Feature","geometry":{"type":"Point","coordinates":[-3.18072,51.48127]},"properties":{"date":"1963-10-06","tour":"The Rolling Stones British Tour 1963","shows":"2","city":"Cardiff","country":"Wales","venue":"Capital Theatre","created_at":"2012-11-13T00:00:00Z","updated_at":"2012-11-26T00:00:00Z","tour_id":"7","longitude":"-3.18072","latitude":"51.48127","cartodb_id":25}},{"type":"Feature","geometry":{"type":"Point","coordinates":[-2.07844,51.89804]},"properties":{"date":"1963-10-08","tour":"The Rolling Stones British Tour 1963","shows":"2","city":"Cheltenham","country":"England","venue":"Odeon Theatre","created_at":"2012-11-13T00:00:00Z","updated_at":"2012-11-26T00:00:00Z","tour_id":"7","longitude":"-2.07844","latitude":"51.89804","cartodb_id":26}},{"type":"Feature","geometry":{"type":"Point","coordinates":[-2.22158,52.19364]},"properties":{"date":"1963-10-09","tour":"The Rolling Stones British Tour 1963","shows":"2","city":"Worcester","country":"England","venue":"Gaumont Theatre","created_at":"2012-11-13T00:00:00Z","updated_at":"2012-11-26T00:00:00Z","tour_id":"7","longitude":"-2.22158","latitude":"52.19364","cartodb_id":27}},{"type":"Feature","geometry":{"type":"Point","coordinates":[-2.12168,52.58864]},"properties":{"date":"1963-10-10","tour":"The Rolling Stones British Tour 1963","shows":"2","city":"Wolverhampton","country":"England","venue":"Gaumont Theatre","created_at":"2012-11-13T00:00:00Z","updated_at":"2012-11-26T00:00:00Z","tour_id":"7","longitude":"-2.12168","latitude":"52.58864","cartodb_id":28}},{"type":"Feature","geometry":{"type":"Point","coordinates":[-0.12714,51.50632]},"properties":{"date":"1963-10-11","tour":"The Rolling Stones British Tour 1963","shows":"2","city":"Derby\tGaumont","country":"England","venue":"Theatre","created_at":"2012-11-13T00:00:00Z","updated_at":"2012-11-26T00:00:00Z","tour_id":"7","longitude":"-0.12714","latitude":"51.50632","cartodb_id":29}},{"type":"Feature","geometry":{"type":"Point","coordinates":[-1.06929,53.50291]},"properties":{"date":"1963-10-12","tour":"The Rolling Stones British Tour 1963","shows":"2","city":"Doncaster","country":"England","venue":"Gaumont Theatre","created_at":"2012-11-13T00:00:00Z","updated_at":"2012-11-26T00:00:00Z","tour_id":"7","longitude":"-1.06929","latitude":"53.50291","cartodb_id":30}},{"type":"Feature","geometry":{"type":"Point","coordinates":[-2.97867,53.40901]},"properties":{"date":"1963-10-13","tour":"The Rolling Stones British Tour 1963","shows":"2","city":"Liverpool","country":"England","venue":"Odeon Theatre","created_at":"2012-11-13T00:00:00Z","updated_at":"2012-11-26T00:00:00Z","tour_id":"7","longitude":"-2.97867","latitude":"53.40901","cartodb_id":31}},{"type":"Feature","geometry":{"type":"Point","coordinates":[-2.24102,53.47496]},"properties":{"date":"1963-10-16","tour":"The Rolling Stones British Tour 1963","shows":"2","city":"Manchester","country":"England","venue":"Odeon Theatre","created_at":"2012-11-13T00:00:00Z","updated_at":"2012-11-26T00:00:00Z","tour_id":"7","longitude":"-2.241024","latitude":"53.474956","cartodb_id":32}},{"type":"Feature","geometry":{"type":"Point","coordinates":[-4.28662,55.85036]},"properties":{"date":"1963-10-17","tour":"The Rolling Stones British Tour 1963","shows":"2","city":"Glasgow","country":"\tScotland","venue":"Odeon Theatre","created_at":"2012-11-13T00:00:00Z","updated_at":"2012-11-26T00:00:00Z","tour_id":"7","longitude":"-4.28662","latitude":"55.85036","cartodb_id":33}},{"type":"Feature","geometry":{"type":"Point","coordinates":[-1.61193,54.97276]},"properties":{"date":"1963-10-18","tour":"The Rolling Stones British Tour 1963","shows":"2","city":"Newcastle upon Tyne","country":"England","venue":"Odeon Theatre","created_at":"2012-11-13T00:00:00Z","updated_at":"2012-11-26T00:00:00Z","tour_id":"7","longitude":"-1.61193","latitude":"54.97276","cartodb_id":34}},{"type":"Feature","geometry":{"type":"Point","coordinates":[-1.75832,53.79573]},"properties":{"date":"1963-10-19","tour":"The Rolling Stones British Tour 1963","shows":"2","city":"Bradford","country":"England","venue":"Gaumont Theatre","created_at":"2012-11-13T00:00:00Z","updated_at":"2012-11-26T00:00:00Z","tour_id":"7","longitude":"-1.75832","latitude":"53.79573","cartodb_id":35}},{"type":"Feature","geometry":{"type":"Point","coordinates":[-2.18541,53.0252]},"properties":{"date":"1963-10-20","tour":"The Rolling Stones British Tour 1963","shows":"2","city":"Hanley","country":"England","venue":"Gaumont Theatre","created_at":"2012-11-13T00:00:00Z","updated_at":"2012-11-26T00:00:00Z","tour_id":"7","longitude":"-2.18541","latitude":"53.0252","cartodb_id":36}},{"type":"Feature","geometry":{"type":"Point","coordinates":[-1.46454,53.38311]},"properties":{"date":"1963-10-22","tour":"The Rolling Stones British Tour 1963","shows":"2","city":"Sheffield","country":"England","venue":"Gaumont Theatre","created_at":"2012-11-13T00:00:00Z","updated_at":"2012-11-26T00:00:00Z","tour_id":"7","longitude":"-1.46454","latitude":"53.38311","cartodb_id":37}},{"type":"Feature","geometry":{"type":"Point","coordinates":[-1.15231,52.9556]},"properties":{"date":"1963-10-23","tour":"The Rolling Stones British Tour 1963","shows":"2","city":"Nottingham","country":"England","venue":"Odeon Theatre","created_at":"2012-11-13T00:00:00Z","updated_at":"2012-11-26T00:00:00Z","tour_id":"7","longitude":"-1.15231","latitude":"52.9556","cartodb_id":38}},{"type":"Feature","geometry":{"type":"Point","coordinates":[-1.84941,52.5262]},"properties":{"date":"1963-10-24","tour":"The Rolling Stones British Tour 1963","shows":"2","city":"Birmingham","country":"England","venue":"Odeon Theatre","created_at":"2012-11-13T00:00:00Z","updated_at":"2012-11-26T00:00:00Z","tour_id":"7","longitude":"-1.84941","latitude":"52.5262","cartodb_id":39}},{"type":"Feature","geometry":{"type":"Point","coordinates":[-3.1107,51.01049]},"properties":{"date":"1963-10-25","tour":"The Rolling Stones British Tour 1963","shows":"2","city":"Taunton","country":"England","venue":"Gaumont Theatre","created_at":"2012-11-13T00:00:00Z","updated_at":"2012-11-26T00:00:00Z","tour_id":"7","longitude":"-3.1107","latitude":"51.01049","cartodb_id":40}},{"type":"Feature","geometry":{"type":"Point","coordinates":[10.80179,59.91576]},"properties":{"date":"2007-08-08","tour":"A Bigger Bang","shows":"1","city":"Oslo","country":"\tNorway","venue":"Valle Hovin","created_at":"2012-11-13T00:00:00Z","updated_at":"2012-11-26T00:00:00Z","tour_id":"21","longitude":"10.801794","latitude":"59.915764","cartodb_id":41}},{"type":"Feature","geometry":{"type":"Point","coordinates":[-1.93123,50.75928]},"properties":{"date":"1963-10-26","tour":"The Rolling Stones British Tour 1963","shows":"2","city":"Bournemouth","country":"England","venue":"Gaumont Theatre","created_at":"2012-11-13T00:00:00Z","updated_at":"2012-11-26T00:00:00Z","tour_id":"7","longitude":"-1.93123","latitude":"50.75928","cartodb_id":42}},{"type":"Feature","geometry":{"type":"Point","coordinates":[-1.80028,51.06954]},"properties":{"date":"1963-10-27","tour":"The Rolling Stones British Tour 1963","shows":"2","city":"Salisbury","country":"England","venue":"Gaumont Theatre","created_at":"2012-11-13T00:00:00Z","updated_at":"2012-11-26T00:00:00Z","tour_id":"7","longitude":"-1.80028","latitude":"51.06954","cartodb_id":43}},{"type":"Feature","geometry":{"type":"Point","coordinates":[-1.40733,50.90992]},"properties":{"date":"1963-10-29","tour":"The Rolling Stones British Tour 1963","shows":"2","city":"Southampton","country":"England","venue":"Gaumont Theatre","created_at":"2012-11-13T00:00:00Z","updated_at":"2012-11-26T00:00:00Z","tour_id":"7","longitude":"-1.40733","latitude":"50.90992","cartodb_id":44}},{"type":"Feature","geometry":{"type":"Point","coordinates":[-0.3446,51.75301]},"properties":{"date":"1963-10-30","tour":"The Rolling Stones British Tour 1963","shows":"2","city":"St Albans","country":"England","venue":"Odeon Theatre","created_at":"2012-11-13T00:00:00Z","updated_at":"2012-11-26T00:00:00Z","tour_id":"7","longitude":"-0.3446","latitude":"51.75301","cartodb_id":45}},{"type":"Feature","geometry":{"type":"Point","coordinates":[-0.16541,51.47206]},"properties":{"date":"1963-10-31","tour":"The Rolling Stones British Tour 1963","shows":"2","city":"London","country":"England","venue":"E\tOdeon Theatre","created_at":"2012-11-13T00:00:00Z","updated_at":"2012-11-26T00:00:00Z","tour_id":"7","longitude":"-0.16541","latitude":"51.472056","cartodb_id":46}},{"type":"Feature","geometry":{"type":"Point","coordinates":[0.50672,51.388]},"properties":{"date":"1963-11-01","tour":"The Rolling Stones British Tour 1963","shows":"2","city":"Rochester","country":"England","venue":"Odeon Theatre","created_at":"2012-11-13T00:00:00Z","updated_at":"2012-11-26T00:00:00Z","tour_id":"7","longitude":"0.50672","latitude":"51.388","cartodb_id":47}},{"type":"Feature","geometry":{"type":"Point","coordinates":[1.2538,52.05083]},"properties":{"date":"1963-11-02","tour":"The Rolling Stones British Tour 1963","shows":"2","city":"Ipswich","country":"England","venue":"Gaumont Theatre","created_at":"2012-11-13T00:00:00Z","updated_at":"2012-11-26T00:00:00Z","tour_id":"7","longitude":"1.2538","latitude":"52.05083","cartodb_id":48}},{"type":"Feature","geometry":{"type":"Point","coordinates":[-0.22544,51.49839]},"properties":{"date":"1963-11-03","tour":"The Rolling Stones British Tour 1963","shows":"2","city":"London","country":"England","venue":"Hammersmith Odeon","created_at":"2012-11-13T00:00:00Z","updated_at":"2012-11-26T00:00:00Z","tour_id":"7","longitude":"-0.225439667701721","latitude":"51.4983943795073","cartodb_id":49}},{"type":"Feature","geometry":{"type":"Point","coordinates":[-0.33523,51.57857]},"properties":{"date":"1964-01-06","tour":"The Rolling Stones 1st British Tour 1964","shows":"2","city":"Harrow-on-the-Hill","country":"England","venue":"Granada Theatre","created_at":"2012-11-13T00:00:00Z","updated_at":"2012-11-26T00:00:00Z","tour_id":"20","longitude":"-0.33523","latitude":"51.57857","cartodb_id":50}},{"type":"Feature","geometry":{"type":"Point","coordinates":[-0.60163,51.50974]},"properties":{"date":"1964-01-07","tour":"The Rolling Stones 1st British Tour 1964","shows":"2","city":"Lough","country":"England","venue":"Adelphi Theatre","created_at":"2012-11-13T00:00:00Z","updated_at":"2012-11-26T00:00:00Z","tour_id":"20","longitude":"-0.60163","latitude":"51.50974","cartodb_id":51}},{"type":"Feature","geometry":{"type":"Point","coordinates":[0.52508,51.2738]},"properties":{"date":"1964-01-08","tour":"The Rolling Stones 1st British Tour 1964","shows":"2","city":"Maidstone","country":"England","venue":"Granada Theatre","created_at":"2012-11-13T00:00:00Z","updated_at":"2012-11-26T00:00:00Z","tour_id":"20","longitude":"0.52508","latitude":"51.2738","cartodb_id":52}},{"type":"Feature","geometry":{"type":"Point","coordinates":[-0.72583,52.39882]},"properties":{"date":"1964-01-09","tour":"The Rolling Stones 1st British Tour 1964","shows":"2","city":"Kettering","country":"England","venue":"Granada Theatre","created_at":"2012-11-13T00:00:00Z","updated_at":"2012-11-26T00:00:00Z","tour_id":"20","longitude":"-0.72583","latitude":"52.39882","cartodb_id":53}},{"type":"Feature","geometry":{"type":"Point","coordinates":[-0.01929,51.58431]},"properties":{"date":"1964-01-10","tour":"The Rolling Stones 1st British Tour 1964","shows":"2","city":"Walthamstow","country":"England","venue":"Granada Theatre","created_at":"2012-11-13T00:00:00Z","updated_at":"2012-11-26T00:00:00Z","tour_id":"20","longitude":"-0.01929","latitude":"51.58431","cartodb_id":54}},{"type":"Feature","geometry":{"type":"Point","coordinates":[-0.1657,51.43024]},"properties":{"date":"1964-01-12","tour":"The Rolling Stones 1st British Tour 1964","shows":"2","city":"Tooting","country":"England","venue":"Granada Theatre","created_at":"2012-11-13T00:00:00Z","updated_at":"2012-11-26T00:00:00Z","tour_id":"20","longitude":"-0.1657","latitude":"51.43024","cartodb_id":55}},{"type":"Feature","geometry":{"type":"Point","coordinates":[-1.23428,53.16492]},"properties":{"date":"1964-01-14","tour":"The Rolling Stones 1st British Tour 1964","shows":"2","city":"Mansfield","country":"England","venue":"Granada Theatre","created_at":"2012-11-13T00:00:00Z","updated_at":"2012-11-26T00:00:00Z","tour_id":"20","longitude":"-1.23428","latitude":"53.16492","cartodb_id":56}},{"type":"Feature","geometry":{"type":"Point","coordinates":[-0.46369,52.13921]},"properties":{"date":"1964-01-15","tour":"The Rolling Stones 1st British Tour 1964","shows":"2","city":"Bedford","country":"England","venue":"Granada Theatre","created_at":"2012-11-13T00:00:00Z","updated_at":"2012-11-26T00:00:00Z","tour_id":"20","longitude":"-0.46369","latitude":"52.13921","cartodb_id":57}},{"type":"Feature","geometry":{"type":"Point","coordinates":[-1.4743,52.36717]},"properties":{"date":"1964-01-19","tour":"The Rolling Stones 1st British Tour 1964","shows":"2","city":"Coventry","country":"England","venue":"Coventry Theatre","created_at":"2012-11-13T00:00:00Z","updated_at":"2012-11-26T00:00:00Z","tour_id":"20","longitude":"-1.4743","latitude":"52.36717","cartodb_id":58}},{"type":"Feature","geometry":{"type":"Point","coordinates":[0.06587,51.4903]},"properties":{"date":"1964-01-20","tour":"The Rolling Stones 1st British Tour 1964","shows":"2","city":"Woolwich","country":"England","venue":"Granada Theatre","created_at":"2012-11-13T00:00:00Z","updated_at":"2012-11-26T00:00:00Z","tour_id":"20","longitude":"0.065873","latitude":"51.490302","cartodb_id":59}},{"type":"Feature","geometry":{"type":"Point","coordinates":[-0.80937,51.8146]},"properties":{"date":"1964-01-21","tour":"The Rolling Stones 1st British Tour 1964","shows":"2","city":"Aylesbury","country":"England","venue":"Granada Theatre","created_at":"2012-11-13T00:00:00Z","updated_at":"2012-11-26T00:00:00Z","tour_id":"20","longitude":"-0.809365","latitude":"51.8146","cartodb_id":60}},{"type":"Feature","geometry":{"type":"Point","coordinates":[-2.75122,52.7066]},"properties":{"date":"1964-01-22","tour":"The Rolling Stones 1st British Tour 1964","shows":"2","city":"Shrewsbury","country":"England","venue":"Granada Theatre","created_at":"2012-11-13T00:00:00Z","updated_at":"2012-11-26T00:00:00Z","tour_id":"20","longitude":"-2.75122","latitude":"52.7066","cartodb_id":61}},{"type":"Feature","geometry":{"type":"Point","coordinates":[-1.1205,52.62527]},"properties":{"date":"1964-01-26","tour":"The Rolling Stones 1st British Tour 1964","shows":"2","city":"Leicester","country":"England","venue":"De Montfort Hall","created_at":"2012-11-13T00:00:00Z","updated_at":"2012-11-26T00:00:00Z","tour_id":"20","longitude":"-1.1205","latitude":"52.62527","cartodb_id":62}},{"type":"Feature","geometry":{"type":"Point","coordinates":[-2.59791,51.45467]},"properties":{"date":"1964-01-27","tour":"The Rolling Stones 1st British Tour 1964","shows":"2","city":"Bristol","country":"England","venue":"Colston Hall","created_at":"2012-11-13T00:00:00Z","updated_at":"2012-11-26T00:00:00Z","tour_id":"20","longitude":"-2.59790769088821","latitude":"51.4546730970472","cartodb_id":63}},{"type":"Feature","geometry":{"type":"Point","coordinates":[-0.05794,51.62677]},"properties":{"date":"1964-02-08","tour":"The Rolling Stones 2nd British Tour 1964","shows":"2","city":"Edmonton","country":"England","venue":"Regal Theatre","created_at":"2012-11-13T00:00:00Z","updated_at":"2012-11-26T00:00:00Z","tour_id":"19","longitude":"-0.05794","latitude":"51.62677","cartodb_id":64}},{"type":"Feature","geometry":{"type":"Point","coordinates":[-1.1205,52.62527]},"properties":{"date":"1964-02-09","tour":"The Rolling Stones 2nd British Tour 1964","shows":"2","city":"Leicester","country":"England","venue":"De Montfort Hall","created_at":"2012-11-13T00:00:00Z","updated_at":"2012-11-26T00:00:00Z","tour_id":"19","longitude":"-1.1205","latitude":"52.62527","cartodb_id":65}},{"type":"Feature","geometry":{"type":"Point","coordinates":[-2.07844,51.89804]},"properties":{"date":"1964-02-10","tour":"The Rolling Stones 2nd British Tour 1964","shows":"2","city":"Cheltenham","country":"England","venue":"Odeon Theatre","created_at":"2012-11-13T00:00:00Z","updated_at":"2012-11-26T00:00:00Z","tour_id":"19","longitude":"-2.07844","latitude":"51.89804","cartodb_id":66}},{"type":"Feature","geometry":{"type":"Point","coordinates":[-1.26079,52.37035]},"properties":{"date":"1964-02-11","tour":"The Rolling Stones 2nd British Tour 1964","shows":"2","city":"Rugby","country":"England","venue":"Granada Theatre","created_at":"2012-11-13T00:00:00Z","updated_at":"2012-11-26T00:00:00Z","tour_id":"19","longitude":"-1.26079","latitude":"52.37035","cartodb_id":67}},{"type":"Feature","geometry":{"type":"Point","coordinates":[-0.57836,51.23752]},"properties":{"date":"1964-02-12","tour":"The Rolling Stones 2nd British Tour 1964","shows":"2","city":"Guildford","country":"England","venue":"Odeon Theatre","created_at":"2012-11-13T00:00:00Z","updated_at":"2012-11-26T00:00:00Z","tour_id":"19","longitude":"-0.57836","latitude":"51.23752","cartodb_id":68}},{"type":"Feature","geometry":{"type":"Point","coordinates":[-0.30393,51.40575]},"properties":{"date":"1964-02-13","tour":"The Rolling Stones 2nd British Tour 1964","shows":"2","city":"Kingston-upon-Thames","country":"England","venue":"Granada Theatre","created_at":"2012-11-13T00:00:00Z","updated_at":"2012-11-26T00:00:00Z","tour_id":"19","longitude":"-0.30393","latitude":"51.40575","cartodb_id":69}},{"type":"Feature","geometry":{"type":"Point","coordinates":[-0.3989,51.65797]},"properties":{"date":"1964-02-14","tour":"The Rolling Stones 2nd British Tour 1964","shows":"2","city":"Watford","country":"England","venue":"Gaumont Theatre","created_at":"2012-11-13T00:00:00Z","updated_at":"2012-11-26T00:00:00Z","tour_id":"19","longitude":"-0.3989","latitude":"51.65797","cartodb_id":70}},{"type":"Feature","geometry":{"type":"Point","coordinates":[0.50672,51.388]},"properties":{"date":"1964-02-15","tour":"The Rolling Stones 2nd British Tour 1964","shows":"2","city":"Rochester","country":"England","venue":"Odeon Theatre","created_at":"2012-11-13T00:00:00Z","updated_at":"2012-11-26T00:00:00Z","tour_id":"19","longitude":"0.50672","latitude":"51.388","cartodb_id":71}},{"type":"Feature","geometry":{"type":"Point","coordinates":[-1.09134,50.79665]},"properties":{"date":"1964-02-16","tour":"The Rolling Stones 2nd British Tour 1964","shows":"2","city":"Portsmouth","country":"England","venue":"Guildhall","created_at":"2012-11-13T00:00:00Z","updated_at":"2012-11-26T00:00:00Z","tour_id":"19","longitude":"-1.09134","latitude":"50.79665","cartodb_id":72}},{"type":"Feature","geometry":{"type":"Point","coordinates":[-0.33985,51.54926]},"properties":{"date":"1964-02-17","tour":"The Rolling Stones 2nd British Tour 1964","shows":"2","city":"Greenford","country":"England","venue":"Granada Theatre","created_at":"2012-11-13T00:00:00Z","updated_at":"2012-11-26T00:00:00Z","tour_id":"19","longitude":"-0.33985","latitude":"51.54926","cartodb_id":73}},{"type":"Feature","geometry":{"type":"Point","coordinates":[0.90351,51.88531]},"properties":{"date":"1964-02-18","tour":"The Rolling Stones 2nd British Tour 1964","shows":"2","city":"England","country":"Colchester","venue":"Rank Theatre","created_at":"2012-11-13T00:00:00Z","updated_at":"2012-11-26T00:00:00Z","tour_id":"19","longitude":"0.90351","latitude":"51.88531","cartodb_id":74}},{"type":"Feature","geometry":{"type":"Point","coordinates":[-1.32929,54.57304]},"properties":{"date":"1964-02-19","tour":"The Rolling Stones 2nd British Tour 1964","shows":"2","city":"Stockton-on-Tees","country":"England","venue":"Rank Theatre","created_at":"2012-11-13T00:00:00Z","updated_at":"2012-11-26T00:00:00Z","tour_id":"19","longitude":"-1.32929","latitude":"54.57304","cartodb_id":75}},{"type":"Feature","geometry":{"type":"Point","coordinates":[-1.38629,54.90229]},"properties":{"date":"1964-02-20","tour":"The Rolling Stones 2nd British Tour 1964","shows":"2","city":"Sunderland","country":"England","venue":"Rank Theatre","created_at":"2012-11-13T00:00:00Z","updated_at":"2012-11-26T00:00:00Z","tour_id":"19","longitude":"-1.38629","latitude":"54.90229","cartodb_id":76}},{"type":"Feature","geometry":{"type":"Point","coordinates":[-2.18541,53.0252]},"properties":{"date":"1964-02-21","tour":"The Rolling Stones 2nd British Tour 1964","shows":"2","city":"Hanley","country":"England","venue":"Gaumont Theatre","created_at":"2012-11-13T00:00:00Z","updated_at":"2012-11-26T00:00:00Z","tour_id":"19","longitude":"-2.18541","latitude":"53.0252","cartodb_id":77}},{"type":"Feature","geometry":{"type":"Point","coordinates":[-1.88003,50.71825]},"properties":{"date":"1964-02-22","tour":"The Rolling Stones 2nd British Tour 1964","shows":"2","city":"Bournemouth","country":"England","venue":"Winter Gardens","created_at":"2012-11-13T00:00:00Z","updated_at":"2012-11-26T00:00:00Z","tour_id":"19","longitude":"-1.88003","latitude":"50.71825","cartodb_id":78}},{"type":"Feature","geometry":{"type":"Point","coordinates":[-1.89576,52.47326]},"properties":{"date":"1964-02-23","tour":"The Rolling Stones 2nd British Tour 1964","shows":"2","city":"Birmingham","country":"England","venue":"Hippodrome Theatre","created_at":"2012-11-13T00:00:00Z","updated_at":"2012-11-26T00:00:00Z","tour_id":"19","longitude":"-1.89575958101697","latitude":"52.4732635060001","cartodb_id":79}},{"type":"Feature","geometry":{"type":"Point","coordinates":[0.70771,51.54593]},"properties":{"date":"1964-02-24","tour":"The Rolling Stones 2nd British Tour 1964","shows":"2","city":"Southend","country":"England","venue":"Odeon Theatre","created_at":"2012-11-13T00:00:00Z","updated_at":"2012-11-26T00:00:00Z","tour_id":"19","longitude":"0.707712","latitude":"51.545927","cartodb_id":80}},{"type":"Feature","geometry":{"type":"Point","coordinates":[0.18431,51.57982]},"properties":{"date":"1964-02-25","tour":"The Rolling Stones 2nd British Tour 1964","shows":"2","city":"Romford","country":"England","venue":"Odeon Theatre","created_at":"2012-11-13T00:00:00Z","updated_at":"2012-11-26T00:00:00Z","tour_id":"19","longitude":"0.18431","latitude":"51.57982","cartodb_id":81}},{"type":"Feature","geometry":{"type":"Point","coordinates":[-1.08342,53.95333]},"properties":{"date":"1964-02-26","tour":"The Rolling Stones 2nd British Tour 1964","shows":"2","city":"York","country":"England","venue":"Rialto Theatre","created_at":"2012-11-13T00:00:00Z","updated_at":"2012-11-26T00:00:00Z","tour_id":"19","longitude":"-1.08342","latitude":"53.95333","cartodb_id":82}},{"type":"Feature","geometry":{"type":"Point","coordinates":[-1.47135,53.38056]},"properties":{"date":"1964-02-27","tour":"The Rolling Stones 2nd British Tour 1964","shows":"2","city":"Sheffield","country":"England","venue":"City Hall","created_at":"2012-11-13T00:00:00Z","updated_at":"2012-11-26T00:00:00Z","tour_id":"19","longitude":"-1.4713523","latitude":"53.3805645","cartodb_id":83}},{"type":"Feature","geometry":{"type":"Point","coordinates":[-3.19149,51.48604]},"properties":{"date":"1964-02-28","tour":"The Rolling Stones 2nd British Tour 1964","shows":"2","city":"Cardiff","country":"Wales","venue":"Sophia Gardens","created_at":"2012-11-13T00:00:00Z","updated_at":"2012-11-26T00:00:00Z","tour_id":"19","longitude":"-3.19149","latitude":"51.48604","cartodb_id":84}},{"type":"Feature","geometry":{"type":"Point","coordinates":[-0.13846,50.83251]},"properties":{"date":"1964-02-29","tour":"The Rolling Stones 2nd British Tour 1964","shows":"2","city":"Brighton","country":"England","venue":"Hippodrome","created_at":"2012-11-13T00:00:00Z","updated_at":"2012-11-26T00:00:00Z","tour_id":"19","longitude":"-0.13846","latitude":"50.83251","cartodb_id":85}},{"type":"Feature","geometry":{"type":"Point","coordinates":[-2.97867,53.40901]},"properties":{"date":"1964-03-01","tour":"The Rolling Stones 2nd British Tour 1964","shows":"2","city":"Liverpool","country":"England","venue":"Empire Theatre","created_at":"2012-11-13T00:00:00Z","updated_at":"2012-11-26T00:00:00Z","tour_id":"19","longitude":"-2.97867","latitude":"53.40901","cartodb_id":86}},{"type":"Feature","geometry":{"type":"Point","coordinates":[-1.15646,52.9544]},"properties":{"date":"1964-03-02","tour":"The Rolling Stones 2nd British Tour 1964","shows":"2","city":"Nottingham","country":"England","venue":"Albert Hall","created_at":"2012-11-13T00:00:00Z","updated_at":"2012-11-26T00:00:00Z","tour_id":"19","longitude":"-1.15646","latitude":"52.9544","cartodb_id":87}},{"type":"Feature","geometry":{"type":"Point","coordinates":[-3.05083,53.81778]},"properties":{"date":"1964-03-03","tour":"The Rolling Stones 2nd British Tour 1964","shows":"2","city":"Blackpool","country":"England","venue":"Opera House","created_at":"2012-11-13T00:00:00Z","updated_at":"2012-11-26T00:00:00Z","tour_id":"19","longitude":"-3.0508254","latitude":"53.8177798","cartodb_id":88}},{"type":"Feature","geometry":{"type":"Point","coordinates":[-1.75832,53.79573]},"properties":{"date":"1964-03-04","tour":"The Rolling Stones 2nd British Tour 1964","shows":"2","city":"Bradford","country":"England","venue":"Gaumont Theatre","created_at":"2012-11-13T00:00:00Z","updated_at":"2012-11-26T00:00:00Z","tour_id":"19","longitude":"-1.75832","latitude":"53.79573","cartodb_id":89}},{"type":"Feature","geometry":{"type":"Point","coordinates":[-2.4915,53.72421]},"properties":{"date":"1964-03-05","tour":"The Rolling Stones 2nd British Tour 1964","shows":"2","city":"Blackburn","country":"England","venue":"Odeon Theatre","created_at":"2012-11-13T00:00:00Z","updated_at":"2012-11-26T00:00:00Z","tour_id":"19","longitude":"-2.4915","latitude":"53.72421","cartodb_id":90}},{"type":"Feature","geometry":{"type":"Point","coordinates":[-2.12168,52.58864]},"properties":{"date":"1964-03-06","tour":"The Rolling Stones 2nd British Tour 1964","shows":"2","city":"Wolverhampton","country":"England","venue":"Gaumont Theatre","created_at":"2012-11-13T00:00:00Z","updated_at":"2012-11-26T00:00:00Z","tour_id":"19","longitude":"-2.12168","latitude":"52.58864","cartodb_id":91}},{"type":"Feature","geometry":{"type":"Point","coordinates":[-2.86996,54.07144]},"properties":{"date":"1964-03-07","tour":"The Rolling Stones 2nd British Tour 1964","shows":"2","city":"Morecambe","country":"England","venue":"Winter Gardens","created_at":"2012-11-13T00:00:00Z","updated_at":"2012-11-26T00:00:00Z","tour_id":"19","longitude":"-2.86996","latitude":"54.07144","cartodb_id":92}},{"type":"Feature","geometry":{"type":"Point","coordinates":[-5.95292,54.58131]},"properties":{"date":"1964-08-01","tour":"The Rolling Stones 3rd British Tour 1964","shows":"1","city":"Belfast","country":"Northern Ireland","venue":"stop after 12 minutes due of hysteria","created_at":"2012-11-13T00:00:00Z","updated_at":"2012-11-26T00:00:00Z","tour_id":"16","longitude":"-5.95292176119983","latitude":"54.5813056547195","cartodb_id":93}},{"type":"Feature","geometry":{"type":"Point","coordinates":[-0.13427,51.48918]},"properties":{"date":"1964-08-03","tour":"The Rolling Stones 3rd British Tour 1964","shows":"1","city":"Longleat House","country":"England","venue":"Longleat House","created_at":"2012-11-13T00:00:00Z","updated_at":"2012-11-26T00:00:00Z","tour_id":"16","longitude":"-0.13427","latitude":"51.48918","cartodb_id":94}},{"type":"Feature","geometry":{"type":"Point","coordinates":[-0.30029,51.4633]},"properties":{"date":"1964-08-07","tour":"The Rolling Stones 3rd British Tour 1964","shows":"1","city":"London","country":"England","venue":"Richmond Athletic Ground","created_at":"2012-11-13T00:00:00Z","updated_at":"2012-11-26T00:00:00Z","tour_id":"16","longitude":"-0.300288","latitude":"51.4633","cartodb_id":95}},{"type":"Feature","geometry":{"type":"Point","coordinates":[4.28219,52.11293]},"properties":{"date":"1964-08-08","tour":"The Rolling Stones 3rd British Tour 1964","shows":"1","city":"Scheveningen","country":"\tNetherlands","venue":"Kurzaal","created_at":"2012-11-13T00:00:00Z","updated_at":"2012-11-26T00:00:00Z","tour_id":"16","longitude":"4.28219","latitude":"52.11293","cartodb_id":96}},{"type":"Feature","geometry":{"type":"Point","coordinates":[-2.24874,53.47959]},"properties":{"date":"1964-08-09","tour":"The Rolling Stones 3rd British Tour 1964","shows":"1","city":"Manchester","country":"England","venue":"New Elizabethan Ballroom","created_at":"2012-11-13T00:00:00Z","updated_at":"2012-11-26T00:00:00Z","tour_id":"16","longitude":"-2.24874","latitude":"53.47959","cartodb_id":97}},{"type":"Feature","geometry":{"type":"Point","coordinates":[-3.12192,53.18061]},"properties":{"date":"1964-08-10","tour":"The Rolling Stones 3rd British Tour 1964","shows":"1","city":"New Brighton","country":"England","venue":"Tower Ballroom","created_at":"2012-11-13T00:00:00Z","updated_at":"2012-11-26T00:00:00Z","tour_id":"16","longitude":"-3.12192","latitude":"53.18061","cartodb_id":98}},{"type":"Feature","geometry":{"type":"Point","coordinates":[-4.481,54.1503]},"properties":{"date":"1964-08-13","tour":"The Rolling Stones 3rd British Tour 1964","shows":"1","city":"Isle of Man","country":"England","venue":"Palace Ballroom","created_at":"2012-11-13T00:00:00Z","updated_at":"2012-11-26T00:00:00Z","tour_id":"16","longitude":"-4.481","latitude":"54.1503","cartodb_id":99}},{"type":"Feature","geometry":{"type":"Point","coordinates":[8.81526,53.08742]},"properties":{"date":"1967-03-29","tour":"The Rolling Stones European Tour 1967","shows":"2","city":"Bremen","country":"Germany","venue":"Stadthalle","created_at":"2012-11-13T00:00:00Z","updated_at":"2012-11-26T00:00:00Z","tour_id":"5","longitude":"8.8152587","latitude":"53.0874171","cartodb_id":234}},{"type":"Feature","geometry":{"type":"Point","coordinates":[-1.7705,50.12954]},"properties":{"date":"1964-08-18","tour":"The Rolling Stones 3rd British Tour 1964","shows":"1","city":"St. Peter Port Guernsey","country":"England","venue":"New Theatre Ballroom","created_at":"2012-11-13T00:00:00Z","updated_at":"2012-11-26T00:00:00Z","tour_id":"16","longitude":"-1.7705","latitude":"50.12954","cartodb_id":100}},{"type":"Feature","geometry":{"type":"Point","coordinates":[-1.7705,50.12954]},"properties":{"date":"1964-08-19","tour":"The Rolling Stones 3rd British Tour 1964","shows":"1","city":"St. Peter Port Guernsey","country":"England","venue":"New Theatre Ballroom","created_at":"2012-11-13T00:00:00Z","updated_at":"2012-11-26T00:00:00Z","tour_id":"16","longitude":"-1.7705","latitude":"50.12954","cartodb_id":101}},{"type":"Feature","geometry":{"type":"Point","coordinates":[-1.7705,50.12954]},"properties":{"date":"1964-08-20","tour":"The Rolling Stones 3rd British Tour 1964","shows":"1","city":"St. Peter Port Guernsey","country":"England","venue":"New Theatre Ballroom","created_at":"2012-11-13T00:00:00Z","updated_at":"2012-11-26T00:00:00Z","tour_id":"16","longitude":"-1.7705","latitude":"50.12954","cartodb_id":102}},{"type":"Feature","geometry":{"type":"Point","coordinates":[-2.09948,49.19119]},"properties":{"date":"1964-08-21","tour":"The Rolling Stones 3rd British Tour 1964","shows":"1","city":"St. Helier Jersey","country":"England","venue":"Springfield Hall","created_at":"2012-11-13T00:00:00Z","updated_at":"2012-11-26T00:00:00Z","tour_id":"16","longitude":"-2.09948","latitude":"49.19119","cartodb_id":103}},{"type":"Feature","geometry":{"type":"Point","coordinates":[-2.09948,49.19119]},"properties":{"date":"1964-08-22","tour":"The Rolling Stones 3rd British Tour 1964","shows":"1","city":"St. Helier Jersey","country":"England","venue":"Springfield Hall","created_at":"2012-11-13T00:00:00Z","updated_at":"2012-11-26T00:00:00Z","tour_id":"16","longitude":"-2.09948","latitude":"49.19119","cartodb_id":104}},{"type":"Feature","geometry":{"type":"Point","coordinates":[-5.95533,54.57731]},"properties":{"date":"1965-01-06","tour":"The Rolling Stones Irish Tour 1965","shows":"2","city":"Belfast","country":"Northern Ireland","venue":"ABC Theatre","created_at":"2012-11-13T00:00:00Z","updated_at":"2012-11-26T00:00:00Z","tour_id":"34","longitude":"-5.95533","latitude":"54.57731","cartodb_id":105}},{"type":"Feature","geometry":{"type":"Point","coordinates":[-6.24827,53.34807]},"properties":{"date":"1965-01-07","tour":"The Rolling Stones Irish Tour 1965","shows":"2","city":"Dublin","country":"\tIreland","venue":"Adelphi Theatre","created_at":"2012-11-13T00:00:00Z","updated_at":"2012-11-26T00:00:00Z","tour_id":"34","longitude":"-6.24827","latitude":"53.34807","cartodb_id":106}},{"type":"Feature","geometry":{"type":"Point","coordinates":[-8.47123,51.8992]},"properties":{"date":"1965-01-08","tour":"The Rolling Stones Irish Tour 1965","shows":"2","city":"Cork","country":"\tIreland","venue":"Savoy Theatre","created_at":"2012-11-13T00:00:00Z","updated_at":"2012-11-26T00:00:00Z","tour_id":"34","longitude":"-8.4712314605713","latitude":"51.8992039749944","cartodb_id":107}},{"type":"Feature","geometry":{"type":"Point","coordinates":[-122.41964,37.77712]},"properties":{"date":"1965-05-14","tour":"The Rolling Stones 1st American Tour 1965","shows":"1","city":"San Francisco","country":"US","venue":"New Civic Auditorium","created_at":"2012-11-13T00:00:00Z","updated_at":"2012-11-27T00:00:00Z","tour_id":"3","longitude":"-122.41964","latitude":"37.77712","cartodb_id":179}},{"type":"Feature","geometry":{"type":"Point","coordinates":[151.01344,-34.02548]},"properties":{"date":"1965-01-22","tour":"The Rolling Stones Far East Tour 1965","shows":"2","city":"Sydney","country":"Australia","venue":"Manufacturer’s Auditorium","created_at":"2012-11-13T00:00:00Z","updated_at":"2012-11-26T00:00:00Z","tour_id":"25","longitude":"151.01344","latitude":"-34.02548","cartodb_id":108}},{"type":"Feature","geometry":{"type":"Point","coordinates":[151.01344,-34.02548]},"properties":{"date":"1965-01-23","tour":"The Rolling Stones Far East Tour 1965","shows":"3","city":"Sydney","country":"Australia","venue":"Manufacturer’s Auditorium","created_at":"2012-11-13T00:00:00Z","updated_at":"2012-11-26T00:00:00Z","tour_id":"25","longitude":"151.01344","latitude":"-34.02548","cartodb_id":109}},{"type":"Feature","geometry":{"type":"Point","coordinates":[153.02348,-27.46896]},"properties":{"date":"1965-01-25","tour":"The Rolling Stones Far East Tour 1965","shows":"2","city":"Brisbane","country":"Australia","venue":"City Hall","created_at":"2012-11-13T00:00:00Z","updated_at":"2012-11-26T00:00:00Z","tour_id":"25","longitude":"153.023478984833","latitude":"-27.4689638187856","cartodb_id":110}},{"type":"Feature","geometry":{"type":"Point","coordinates":[153.02348,-27.46896]},"properties":{"date":"1965-01-26","tour":"The Rolling Stones Far East Tour 1965","shows":"2","city":"Brisbane","country":"Australia","venue":"City Hall","created_at":"2012-11-13T00:00:00Z","updated_at":"2012-11-26T00:00:00Z","tour_id":"25","longitude":"153.023478984833","latitude":"-27.4689638187856","cartodb_id":111}},{"type":"Feature","geometry":{"type":"Point","coordinates":[151.01344,-34.02548]},"properties":{"date":"1965-01-27","tour":"The Rolling Stones Far East Tour 1965","shows":"2","city":"Sydney","country":"Australia","venue":"Manufacturer’s Auditorium","created_at":"2012-11-13T00:00:00Z","updated_at":"2012-11-26T00:00:00Z","tour_id":"25","longitude":"151.01344","latitude":"-34.02548","cartodb_id":112}},{"type":"Feature","geometry":{"type":"Point","coordinates":[144.97603,-37.86754]},"properties":{"date":"1965-01-28","tour":"The Rolling Stones Far East Tour 1965","shows":"2","city":"St Kilda","country":"Australia","venue":"Palais Theatre","created_at":"2012-11-13T00:00:00Z","updated_at":"2012-11-26T00:00:00Z","tour_id":"25","longitude":"144.9760262","latitude":"-37.86753532","cartodb_id":113}},{"type":"Feature","geometry":{"type":"Point","coordinates":[144.97603,-37.86754]},"properties":{"date":"1965-01-29","tour":"The Rolling Stones Far East Tour 1965","shows":"3","city":"St Kilda","country":"Australia","venue":"Palais Theatre","created_at":"2012-11-13T00:00:00Z","updated_at":"2012-11-26T00:00:00Z","tour_id":"25","longitude":"144.9760262","latitude":"-37.86753532","cartodb_id":114}},{"type":"Feature","geometry":{"type":"Point","coordinates":[-105.01757,39.74177]},"properties":{"date":"1994-09-15","tour":"Voodoo Lounge Tour","shows":"1","city":"Denver","country":"US","venue":"Mile High Stadium","created_at":"2012-11-13T00:00:00Z","updated_at":"2012-11-26T00:00:00Z","tour_id":"30","longitude":"-105.01757","latitude":"39.74177","cartodb_id":115}},{"type":"Feature","geometry":{"type":"Point","coordinates":[172.63833,-43.52982]},"properties":{"date":"1965-02-01","tour":"The Rolling Stones Far East Tour 1965","shows":"2","city":"Christchurch","country":"New Zealand","venue":"Theatre Royal","created_at":"2012-11-13T00:00:00Z","updated_at":"2012-11-26T00:00:00Z","tour_id":"25","longitude":"172.63833","latitude":"-43.52982","cartodb_id":116}},{"type":"Feature","geometry":{"type":"Point","coordinates":[168.35249,-46.41294]},"properties":{"date":"1965-02-02","tour":"The Rolling Stones Far East Tour 1965","shows":"2","city":"Invercargill","country":"New Zealand","venue":"Civic Theatre","created_at":"2012-11-13T00:00:00Z","updated_at":"2012-11-26T00:00:00Z","tour_id":"25","longitude":"168.35249","latitude":"-46.41294","cartodb_id":117}},{"type":"Feature","geometry":{"type":"Point","coordinates":[170.50008,-45.89536]},"properties":{"date":"1965-02-03","tour":"The Rolling Stones Far East Tour 1965","shows":"2","city":"Dunedin","country":"New Zealand","venue":"Town Hall","created_at":"2012-11-13T00:00:00Z","updated_at":"2012-11-26T00:00:00Z","tour_id":"25","longitude":"170.50008","latitude":"-45.89536","cartodb_id":118}},{"type":"Feature","geometry":{"type":"Point","coordinates":[174.85223,-36.98024]},"properties":{"date":"1965-02-06","tour":"The Rolling Stones Far East Tour 1965","shows":"2","city":"Auckland","country":"New Zealand","venue":"Town Hall","created_at":"2012-11-13T00:00:00Z","updated_at":"2012-11-26T00:00:00Z","tour_id":"25","longitude":"174.85223","latitude":"-36.98024","cartodb_id":119}},{"type":"Feature","geometry":{"type":"Point","coordinates":[174.90315,-41.21189]},"properties":{"date":"1965-02-08","tour":"The Rolling Stones Far East Tour 1965","shows":"2","city":"Wellington","country":"New Zealand","venue":"Town Hall","created_at":"2012-11-13T00:00:00Z","updated_at":"2012-11-26T00:00:00Z","tour_id":"25","longitude":"174.90315","latitude":"-41.21189","cartodb_id":120}},{"type":"Feature","geometry":{"type":"Point","coordinates":[144.97603,-37.86754]},"properties":{"date":"1965-02-10","tour":"The Rolling Stones Far East Tour 1965","shows":"2","city":"St Kilda","country":"Australia","venue":"Palais Theatre","created_at":"2012-11-13T00:00:00Z","updated_at":"2012-11-26T00:00:00Z","tour_id":"25","longitude":"144.9760262","latitude":"-37.86753532","cartodb_id":121}},{"type":"Feature","geometry":{"type":"Point","coordinates":[138.47351,-35.14851]},"properties":{"date":"1965-02-11","tour":"The Rolling Stones Far East Tour 1965","shows":"2","city":"Adelaide","country":"Australia","venue":"Centennial Hall","created_at":"2012-11-13T00:00:00Z","updated_at":"2012-11-26T00:00:00Z","tour_id":"25","longitude":"138.47351","latitude":"-35.14851","cartodb_id":122}},{"type":"Feature","geometry":{"type":"Point","coordinates":[115.73427,-31.68869]},"properties":{"date":"1965-02-13","tour":"The Rolling Stones Far East Tour 1965","shows":"3","city":"Perth","country":"Australia","venue":"Capitol Theatre","created_at":"2012-11-13T00:00:00Z","updated_at":"2012-11-26T00:00:00Z","tour_id":"25","longitude":"115.73427","latitude":"-31.68869","cartodb_id":123}},{"type":"Feature","geometry":{"type":"Point","coordinates":[103.88241,1.31002]},"properties":{"date":"1965-02-16","tour":"The Rolling Stones Far East Tour 1965","shows":"2","city":"Singapore","country":"\tSingapore","venue":"Badminton Hall","created_at":"2012-11-13T00:00:00Z","updated_at":"2012-11-26T00:00:00Z","tour_id":"25","longitude":"103.88241","latitude":"1.31002","cartodb_id":124}},{"type":"Feature","geometry":{"type":"Point","coordinates":[-0.05794,51.62677]},"properties":{"date":"1965-03-05","tour":"The Rolling Stones 1st British Tour 1965","shows":"2","city":"London Edmonton","country":"England","venue":"Regal Theatre","created_at":"2012-11-13T00:00:00Z","updated_at":"2012-11-26T00:00:00Z","tour_id":"33","longitude":"-0.05794","latitude":"51.62677","cartodb_id":125}},{"type":"Feature","geometry":{"type":"Point","coordinates":[-2.97867,53.40901]},"properties":{"date":"1965-03-06","tour":"The Rolling Stones 1st British Tour 1965","shows":"2","city":"Liverpool","country":"England","venue":"Empire Theatre","created_at":"2012-11-13T00:00:00Z","updated_at":"2012-11-26T00:00:00Z","tour_id":"33","longitude":"-2.97867","latitude":"53.40901","cartodb_id":126}},{"type":"Feature","geometry":{"type":"Point","coordinates":[-2.24102,53.47496]},"properties":{"date":"1965-03-07","tour":"The Rolling Stones 1st British Tour 1965","shows":"2","city":"Manchester","country":"England","venue":"Palace Theatre","created_at":"2012-11-13T00:00:00Z","updated_at":"2012-11-26T00:00:00Z","tour_id":"33","longitude":"-2.241024","latitude":"53.474956","cartodb_id":127}},{"type":"Feature","geometry":{"type":"Point","coordinates":[-0.39611,54.28213]},"properties":{"date":"1965-03-08","tour":"The Rolling Stones 1st British Tour 1965","shows":"2","city":"Scarborough","country":"England","venue":"Futurist Theatre","created_at":"2012-11-13T00:00:00Z","updated_at":"2012-11-26T00:00:00Z","tour_id":"33","longitude":"-0.39611","latitude":"54.28213","cartodb_id":128}},{"type":"Feature","geometry":{"type":"Point","coordinates":[-1.38919,54.90638]},"properties":{"date":"1965-03-09","tour":"The Rolling Stones 1st British Tour 1965","shows":"2","city":"Sunderland","country":"England","venue":"Odeon Theatre","created_at":"2012-11-13T00:00:00Z","updated_at":"2012-11-26T00:00:00Z","tour_id":"33","longitude":"-1.38919","latitude":"54.90638","cartodb_id":129}},{"type":"Feature","geometry":{"type":"Point","coordinates":[-1.61222,53.59233]},"properties":{"date":"1965-03-10","tour":"The Rolling Stones 1st British Tour 1965","shows":"2","city":"Huddersfield","country":"England","venue":"ABC Theatre","created_at":"2012-11-13T00:00:00Z","updated_at":"2012-11-26T00:00:00Z","tour_id":"33","longitude":"-1.61222","latitude":"53.59233","cartodb_id":130}},{"type":"Feature","geometry":{"type":"Point","coordinates":[-1.47135,53.38056]},"properties":{"date":"1965-03-11","tour":"The Rolling Stones 1st British Tour 1965","shows":"2","city":"Sheffield","country":"England","venue":"City Hall","created_at":"2012-11-13T00:00:00Z","updated_at":"2012-11-26T00:00:00Z","tour_id":"33","longitude":"-1.4713523","latitude":"53.3805645","cartodb_id":131}},{"type":"Feature","geometry":{"type":"Point","coordinates":[-1.14044,52.63798]},"properties":{"date":"1965-03-12","tour":"The Rolling Stones 1st British Tour 1965","shows":"2","city":"Leicester","country":"England","venue":"Trocadero Theatre","created_at":"2012-11-13T00:00:00Z","updated_at":"2012-11-26T00:00:00Z","tour_id":"33","longitude":"-1.14044","latitude":"52.63798","cartodb_id":132}},{"type":"Feature","geometry":{"type":"Point","coordinates":[-1.26079,52.37035]},"properties":{"date":"1965-03-13","tour":"The Rolling Stones 1st British Tour 1965","shows":"2","city":"Rugby","country":"England","venue":"Granada Theatre","created_at":"2012-11-13T00:00:00Z","updated_at":"2012-11-26T00:00:00Z","tour_id":"33","longitude":"-1.26079","latitude":"52.37035","cartodb_id":133}},{"type":"Feature","geometry":{"type":"Point","coordinates":[0.50672,51.388]},"properties":{"date":"1965-03-14","tour":"The Rolling Stones 1st British Tour 1965","shows":"2","city":"Rochester","country":"England","venue":"Odeon Theatre","created_at":"2012-11-13T00:00:00Z","updated_at":"2012-11-26T00:00:00Z","tour_id":"33","longitude":"0.50672","latitude":"51.388","cartodb_id":134}},{"type":"Feature","geometry":{"type":"Point","coordinates":[-0.57836,51.23752]},"properties":{"date":"1965-03-15","tour":"The Rolling Stones 1st British Tour 1965","shows":"2","city":"Guildford","country":"England","venue":"Odeon Theatre","created_at":"2012-11-13T00:00:00Z","updated_at":"2012-11-26T00:00:00Z","tour_id":"33","longitude":"-0.57836","latitude":"51.23752","cartodb_id":135}},{"type":"Feature","geometry":{"type":"Point","coordinates":[-0.33985,51.54926]},"properties":{"date":"1965-03-16","tour":"The Rolling Stones 1st British Tour 1965","shows":"2","city":"Greenford","country":"England","venue":"Granada Theatre","created_at":"2012-11-13T00:00:00Z","updated_at":"2012-11-26T00:00:00Z","tour_id":"33","longitude":"-0.33985","latitude":"51.54926","cartodb_id":136}},{"type":"Feature","geometry":{"type":"Point","coordinates":[0.70771,51.54593]},"properties":{"date":"1965-03-17","tour":"The Rolling Stones 1st British Tour 1965","shows":"2","city":"Southend","country":"England","venue":"Odeon Theatre","created_at":"2012-11-13T00:00:00Z","updated_at":"2012-11-26T00:00:00Z","tour_id":"33","longitude":"0.707712","latitude":"51.545927","cartodb_id":137}},{"type":"Feature","geometry":{"type":"Point","coordinates":[0.18398,51.57344]},"properties":{"date":"1965-03-18","tour":"The Rolling Stones 1st British Tour 1965","shows":"2","city":"Romford","country":"England","venue":"ABC Theatre","created_at":"2012-11-13T00:00:00Z","updated_at":"2012-11-26T00:00:00Z","tour_id":"33","longitude":"0.18398","latitude":"51.57344","cartodb_id":138}},{"type":"Feature","geometry":{"type":"Point","coordinates":[10.41344,55.36932]},"properties":{"date":"1965-03-26","tour":"The Rolling Stones 1st European Tour 1965","shows":"2","city":"Odense","country":"\tDenmark","venue":"Fyns Forum","created_at":"2012-11-13T00:00:00Z","updated_at":"2012-11-26T00:00:00Z","tour_id":"11","longitude":"10.41343852","latitude":"55.36931565","cartodb_id":139}},{"type":"Feature","geometry":{"type":"Point","coordinates":[12.56883,55.67238]},"properties":{"date":"1965-03-28","tour":"The Rolling Stones 1st European Tour 1965","shows":"2","city":"Copenhagen","country":"\tDenmark","venue":"Tivoli Koncertsal","created_at":"2012-11-13T00:00:00Z","updated_at":"2012-11-26T00:00:00Z","tour_id":"11","longitude":"12.5688314437866","latitude":"55.672381541908","cartodb_id":140}},{"type":"Feature","geometry":{"type":"Point","coordinates":[12.56883,55.67238]},"properties":{"date":"1965-03-30","tour":"The Rolling Stones 1st European Tour 1965","shows":"2","city":"Copenhagen","country":"\tDenmark","venue":"Tivoli Koncertsal","created_at":"2012-11-13T00:00:00Z","updated_at":"2012-11-26T00:00:00Z","tour_id":"11","longitude":"12.5688314437866","latitude":"55.672381541908","cartodb_id":141}},{"type":"Feature","geometry":{"type":"Point","coordinates":[11.96705,57.70126]},"properties":{"date":"1965-03-31","tour":"The Rolling Stones 1st European Tour 1965","shows":"2","city":"Gothenburg","country":"\tSweden","venue":"Masshallen","created_at":"2012-11-13T00:00:00Z","updated_at":"2012-11-26T00:00:00Z","tour_id":"11","longitude":"11.96705","latitude":"57.70126","cartodb_id":142}},{"type":"Feature","geometry":{"type":"Point","coordinates":[18.05055,59.34809]},"properties":{"date":"1965-04-01","tour":"The Rolling Stones 1st European Tour 1965","shows":"1","city":"Stockholm","country":"\tSweden","venue":"Kungliga Tennishallen","created_at":"2012-11-13T00:00:00Z","updated_at":"2012-11-26T00:00:00Z","tour_id":"11","longitude":"18.0505548763578","latitude":"59.3480877752329","cartodb_id":143}},{"type":"Feature","geometry":{"type":"Point","coordinates":[18.05055,59.34809]},"properties":{"date":"1965-04-02","tour":"The Rolling Stones 1st European Tour 1965","shows":"1","city":"Stockholm","country":"\tSweden","venue":"Kungliga Tennishallen","created_at":"2012-11-13T00:00:00Z","updated_at":"2012-11-26T00:00:00Z","tour_id":"11","longitude":"18.0505548763578","latitude":"59.3480877752329","cartodb_id":144}},{"type":"Feature","geometry":{"type":"Point","coordinates":[2.32829,48.87009]},"properties":{"date":"1965-04-16","tour":"The Rolling Stones 2nd European Tour 1965","shows":"1","city":"Paris","country":"\tFrance","venue":"L'Olympia","created_at":"2012-11-13T00:00:00Z","updated_at":"2012-11-26T00:00:00Z","tour_id":"31","longitude":"2.32829","latitude":"48.8700905","cartodb_id":145}},{"type":"Feature","geometry":{"type":"Point","coordinates":[2.32829,48.87009]},"properties":{"date":"1965-04-17","tour":"The Rolling Stones 2nd European Tour 1965","shows":"1","city":"Paris","country":"\tFrance","venue":"L'Olympia","created_at":"2012-11-13T00:00:00Z","updated_at":"2012-11-26T00:00:00Z","tour_id":"31","longitude":"2.32829","latitude":"48.8700905","cartodb_id":146}},{"type":"Feature","geometry":{"type":"Point","coordinates":[2.32829,48.87009]},"properties":{"date":"1965-04-18","tour":"The Rolling Stones 2nd European Tour 1965","shows":"1","city":"Paris","country":"\tFrance","venue":"L'Olympia","created_at":"2012-11-13T00:00:00Z","updated_at":"2012-11-26T00:00:00Z","tour_id":"31","longitude":"2.32829","latitude":"48.8700905","cartodb_id":147}},{"type":"Feature","geometry":{"type":"Point","coordinates":[-73.54712,45.56288]},"properties":{"date":"1965-04-23","tour":"The Rolling Stones 1st American Tour 1965","shows":"1","city":"Montreal","country":"\tCanada","venue":"Maurice Richard Arena","created_at":"2012-11-13T00:00:00Z","updated_at":"2012-11-26T00:00:00Z","tour_id":"3","longitude":"-73.54712","latitude":"45.56288","cartodb_id":148}},{"type":"Feature","geometry":{"type":"Point","coordinates":[-75.69118,45.42178]},"properties":{"date":"1965-04-24","tour":"The Rolling Stones 1st American Tour 1965","shows":"1","city":"Ottawa","country":"\tCanada","venue":"YMCA Auditorium","created_at":"2012-11-13T00:00:00Z","updated_at":"2012-11-26T00:00:00Z","tour_id":"3","longitude":"-75.69118","latitude":"45.42178","cartodb_id":149}},{"type":"Feature","geometry":{"type":"Point","coordinates":[-79.38038,43.66197]},"properties":{"date":"1965-04-25","tour":"The Rolling Stones 1st American Tour 1965","shows":"1","city":"Toronto","country":"\tCanada","venue":"Maple Leaf Gardens","created_at":"2012-11-13T00:00:00Z","updated_at":"2012-11-26T00:00:00Z","tour_id":"3","longitude":"-79.38038274","latitude":"43.66197344","cartodb_id":150}},{"type":"Feature","geometry":{"type":"Point","coordinates":[-81.24318,42.98695]},"properties":{"date":"1965-04-26","tour":"The Rolling Stones 1st American Tour 1965","shows":"1","city":"London","country":"\tCanada","venue":"Treasure Island Gardens","created_at":"2012-11-13T00:00:00Z","updated_at":"2012-11-26T00:00:00Z","tour_id":"3","longitude":"-81.24318","latitude":"42.98695","cartodb_id":151}},{"type":"Feature","geometry":{"type":"Point","coordinates":[9.857,55.872]},"properties":{"date":"2006-09-03","tour":"A Bigger Bang","shows":"1","city":"Horsens","country":"\tDenmark","venue":"CASA Arena Horsens","created_at":"2012-11-13T00:00:00Z","updated_at":"2012-11-26T00:00:00Z","tour_id":"21","longitude":"9.857","latitude":"55.872","cartodb_id":1244}},{"type":"Feature","geometry":{"type":"Point","coordinates":[-73.01207,40.76315]},"properties":{"date":"1965-04-01","tour":"The Rolling Stones 1st American Tour 1965","shows":"1","city":"New York","country":"US","venue":"US Academy Of Music","created_at":"2012-11-13T00:00:00Z","updated_at":"2012-11-26T00:00:00Z","tour_id":"3","longitude":"-73.01207","latitude":"40.76315","cartodb_id":152}},{"type":"Feature","geometry":{"type":"Point","coordinates":[-81.65622,30.33147]},"properties":{"date":"1965-05-08","tour":"The Rolling Stones 1st American Tour 1965","shows":"1","city":"Jacksonville","country":"Florida","venue":"Coliseum","created_at":"2012-11-13T00:00:00Z","updated_at":"2012-11-26T00:00:00Z","tour_id":"3","longitude":"-81.65622","latitude":"30.33147","cartodb_id":153}},{"type":"Feature","geometry":{"type":"Point","coordinates":[-74.09576,40.64401]},"properties":{"date":"1965-05-29","tour":"The Rolling Stones 1st American Tour 1965","shows":"3","city":"New York","country":"US","venue":"Academy Of Music","created_at":"2012-11-13T00:00:00Z","updated_at":"2012-11-26T00:00:00Z","tour_id":"3","longitude":"-74.095763","latitude":"40.644012","cartodb_id":154}},{"type":"Feature","geometry":{"type":"Point","coordinates":[-4.28662,55.85036]},"properties":{"date":"1965-06-15","tour":"The Rolling Stones 3rd European Tour 1965","shows":"2","city":"Glasgow","country":"\tScotland","venue":"Odeon Theatre","created_at":"2012-11-13T00:00:00Z","updated_at":"2012-11-26T00:00:00Z","tour_id":"24","longitude":"-4.28662","latitude":"55.85036","cartodb_id":155}},{"type":"Feature","geometry":{"type":"Point","coordinates":[-3.20589,55.9465]},"properties":{"date":"1965-06-16","tour":"The Rolling Stones 3rd European Tour 1965","shows":"2","city":"Edinburgh","country":"\tScotland","venue":"Usher Hall","created_at":"2012-11-13T00:00:00Z","updated_at":"2012-11-26T00:00:00Z","tour_id":"24","longitude":"-3.20589","latitude":"55.9465","cartodb_id":156}},{"type":"Feature","geometry":{"type":"Point","coordinates":[-2.11112,57.14311]},"properties":{"date":"1965-06-17","tour":"The Rolling Stones 3rd European Tour 1965","shows":"2","city":"Aberdeen","country":"\tScotland","venue":"Capitol Theatre","created_at":"2012-11-13T00:00:00Z","updated_at":"2012-11-26T00:00:00Z","tour_id":"24","longitude":"-2.11112","latitude":"57.14311","cartodb_id":157}},{"type":"Feature","geometry":{"type":"Point","coordinates":[-2.96804,56.45986]},"properties":{"date":"1965-06-18","tour":"The Rolling Stones 3rd European Tour 1965","shows":"2","city":"Dundee","country":"\tScotland","venue":"Caird Hall","created_at":"2012-11-13T00:00:00Z","updated_at":"2012-11-26T00:00:00Z","tour_id":"24","longitude":"-2.96804","latitude":"56.45986","cartodb_id":158}},{"type":"Feature","geometry":{"type":"Point","coordinates":[10.74998,59.91228]},"properties":{"date":"1965-06-24","tour":"The Rolling Stones 3rd European Tour 1965","shows":"2","city":"Oslo","country":"\tNorway","venue":"Messehallen","created_at":"2012-11-13T00:00:00Z","updated_at":"2012-11-26T00:00:00Z","tour_id":"24","longitude":"10.74998","latitude":"59.91228","cartodb_id":159}},{"type":"Feature","geometry":{"type":"Point","coordinates":[21.51778,61.57027]},"properties":{"date":"1965-06-25","tour":"The Rolling Stones 3rd European Tour 1965","shows":"1","city":"Pori","country":"\tFinland","venue":"Yyteri Beach","created_at":"2012-11-13T00:00:00Z","updated_at":"2012-11-26T00:00:00Z","tour_id":"24","longitude":"21.5177803","latitude":"61.5702705","cartodb_id":160}},{"type":"Feature","geometry":{"type":"Point","coordinates":[12.5676,55.67568]},"properties":{"date":"1965-06-26","tour":"The Rolling Stones 3rd European Tour 1965","shows":"2","city":"Copenhagen","country":"\tDenmark","venue":"Falkoner Centret","created_at":"2012-11-13T00:00:00Z","updated_at":"2012-11-26T00:00:00Z","tour_id":"24","longitude":"12.5676","latitude":"55.67568","cartodb_id":161}},{"type":"Feature","geometry":{"type":"Point","coordinates":[12.99141,55.58717]},"properties":{"date":"1965-06-29","tour":"The Rolling Stones 3rd European Tour 1965","shows":"2","city":"Malmö","country":"\tSweden","venue":"Baltiska Hallen","created_at":"2012-11-13T00:00:00Z","updated_at":"2012-11-26T00:00:00Z","tour_id":"24","longitude":"12.99141","latitude":"55.58717","cartodb_id":162}},{"type":"Feature","geometry":{"type":"Point","coordinates":[-6.24827,53.34807]},"properties":{"date":"1965-09-03","tour":"The Rolling Stones 2nd Irish Tour 1965","shows":"2","city":"Dublin","country":"\tIreland","venue":"Adelphi Theatre","created_at":"2012-11-13T00:00:00Z","updated_at":"2012-11-26T00:00:00Z","tour_id":"36","longitude":"-6.24827","latitude":"53.34807","cartodb_id":163}},{"type":"Feature","geometry":{"type":"Point","coordinates":[-5.95533,54.57731]},"properties":{"date":"1965-09-04","tour":"The Rolling Stones 2nd Irish Tour 1965","shows":"2","city":"Belfast","country":"Northern Ireland","venue":"ABC Theatre","created_at":"2012-11-13T00:00:00Z","updated_at":"2012-11-26T00:00:00Z","tour_id":"36","longitude":"-5.95533","latitude":"54.57731","cartodb_id":164}},{"type":"Feature","geometry":{"type":"Point","coordinates":[7.63903,51.94915]},"properties":{"date":"1965-09-11","tour":"The Rolling Stones 4th European Tour 1965","shows":"2","city":"Muenster","country":"Germany","venue":"Halle Muensterland","created_at":"2012-11-13T00:00:00Z","updated_at":"2012-11-26T00:00:00Z","tour_id":"9","longitude":"7.63903","latitude":"51.94915","cartodb_id":165}},{"type":"Feature","geometry":{"type":"Point","coordinates":[6.999,51.43107]},"properties":{"date":"1965-09-12","tour":"The Rolling Stones 4th European Tour 1965","shows":"2","city":"Essen","country":"Germany","venue":"Grugahalle","created_at":"2012-11-13T00:00:00Z","updated_at":"2012-11-26T00:00:00Z","tour_id":"9","longitude":"6.999","latitude":"51.43107","cartodb_id":166}},{"type":"Feature","geometry":{"type":"Point","coordinates":[10.00633,53.55476]},"properties":{"date":"1965-09-13","tour":"The Rolling Stones 4th European Tour 1965","shows":"2","city":"Hamburg","country":"Germany","venue":"Ernst-Merck-Halle","created_at":"2012-11-13T00:00:00Z","updated_at":"2012-11-26T00:00:00Z","tour_id":"9","longitude":"10.00633","latitude":"53.55476","cartodb_id":167}},{"type":"Feature","geometry":{"type":"Point","coordinates":[11.55026,48.14571]},"properties":{"date":"1965-09-14","tour":"The Rolling Stones 4th European Tour 1965","shows":"2","city":"Munich","country":"Germany","venue":"Zirkus Krone-Bau","created_at":"2012-11-13T00:00:00Z","updated_at":"2012-11-26T00:00:00Z","tour_id":"9","longitude":"11.55026","latitude":"48.14571","cartodb_id":168}},{"type":"Feature","geometry":{"type":"Point","coordinates":[13.22998,52.51381]},"properties":{"date":"1965-09-15","tour":"The Rolling Stones 4th European Tour 1965","shows":"1","city":"Berlin","country":"Germany","venue":"Waldbuehne","created_at":"2012-11-13T00:00:00Z","updated_at":"2012-11-26T00:00:00Z","tour_id":"9","longitude":"13.22998","latitude":"52.51381","cartodb_id":169}},{"type":"Feature","geometry":{"type":"Point","coordinates":[16.33174,48.20193]},"properties":{"date":"1965-09-17","tour":"The Rolling Stones 4th European Tour 1965","shows":"1","city":"Vienna","country":"\tAustria","venue":"Stadthalle","created_at":"2012-11-13T00:00:00Z","updated_at":"2012-11-26T00:00:00Z","tour_id":"9","longitude":"16.33174","latitude":"48.20193","cartodb_id":170}},{"type":"Feature","geometry":{"type":"Point","coordinates":[-0.13078,51.51574]},"properties":{"date":"1965-09-24","tour":"The Rolling Stones 2nd British Tour 1965","shows":"2","city":"London","country":"England","venue":"Astoria Theatre","created_at":"2012-11-13T00:00:00Z","updated_at":"2012-11-26T00:00:00Z","tour_id":"22","longitude":"-0.130784511566162","latitude":"51.5157413565416","cartodb_id":171}},{"type":"Feature","geometry":{"type":"Point","coordinates":[-1.40733,50.90992]},"properties":{"date":"1965-09-25","tour":"The Rolling Stones 2nd British Tour 1965","shows":"2","city":"Southampton","country":"England","venue":"Gaumont Theatre","created_at":"2012-11-13T00:00:00Z","updated_at":"2012-11-26T00:00:00Z","tour_id":"22","longitude":"-1.40733","latitude":"50.90992","cartodb_id":172}},{"type":"Feature","geometry":{"type":"Point","coordinates":[-2.59791,51.45467]},"properties":{"date":"1965-09-26","tour":"The Rolling Stones 2nd British Tour 1965","shows":"2","city":"Bristol","country":"England","venue":"Colston Hall","created_at":"2012-11-13T00:00:00Z","updated_at":"2012-11-26T00:00:00Z","tour_id":"22","longitude":"-2.59790769088821","latitude":"51.4546730970472","cartodb_id":173}},{"type":"Feature","geometry":{"type":"Point","coordinates":[-2.07844,51.89804]},"properties":{"date":"1965-09-27","tour":"The Rolling Stones 2nd British Tour 1965","shows":"2","city":"Cheltenham","country":"England","venue":"Odeon Theatre","created_at":"2012-11-13T00:00:00Z","updated_at":"2012-11-26T00:00:00Z","tour_id":"22","longitude":"-2.07844","latitude":"51.89804","cartodb_id":174}},{"type":"Feature","geometry":{"type":"Point","coordinates":[-75.15913,39.95446]},"properties":{"date":"1965-05-01","tour":"The Rolling Stones 1st American Tour 1965","shows":"1","city":"Philadelphia","country":"US","venue":"Convention Hall","created_at":"2012-11-13T00:00:00Z","updated_at":"2012-11-27T00:00:00Z","tour_id":"3","longitude":"-75.15913","latitude":"39.95446","cartodb_id":175}},{"type":"Feature","geometry":{"type":"Point","coordinates":[-81.7808,32.41729]},"properties":{"date":"1965-05-04","tour":"The Rolling Stones 1st American Tour 1965","shows":"1","city":"Statesboro","country":"US","venue":"Southern College Hanner Gymnasium","created_at":"2012-11-13T00:00:00Z","updated_at":"2012-11-27T00:00:00Z","tour_id":"3","longitude":"-81.7808","latitude":"32.41729","cartodb_id":176}},{"type":"Feature","geometry":{"type":"Point","coordinates":[-82.78964,27.97358]},"properties":{"date":"1965-05-06","tour":"The Rolling Stones 1st American Tour 1965","shows":"1","city":"Clearwater","country":"US","venue":"Jack Russell Stadium","created_at":"2012-11-13T00:00:00Z","updated_at":"2012-11-27T00:00:00Z","tour_id":"3","longitude":"-82.78964","latitude":"27.97358","cartodb_id":177}},{"type":"Feature","geometry":{"type":"Point","coordinates":[-86.84266,33.50985]},"properties":{"date":"1965-05-07","tour":"The Rolling Stones 1st American Tour 1965","shows":"1","city":"Birmingham","country":"US","venue":"Legion Field Stadium","created_at":"2012-11-13T00:00:00Z","updated_at":"2012-11-27T00:00:00Z","tour_id":"3","longitude":"-86.84266","latitude":"33.50985","cartodb_id":178}},{"type":"Feature","geometry":{"type":"Point","coordinates":[-117.33478,34.12717]},"properties":{"date":"1965-05-15","tour":"The Rolling Stones 1st American Tour 1965","shows":"1","city":"San Bernardino","country":"US","venue":"Swing Auditorium","created_at":"2012-11-13T00:00:00Z","updated_at":"2012-11-27T00:00:00Z","tour_id":"3","longitude":"-117.33478","latitude":"34.12717","cartodb_id":180}},{"type":"Feature","geometry":{"type":"Point","coordinates":[-118.18067,33.83448]},"properties":{"date":"1965-05-16","tour":"The Rolling Stones 1st American Tour 1965","shows":"1","city":"Long Beach","country":"US","venue":"Civic Auditorium","created_at":"2012-11-13T00:00:00Z","updated_at":"2012-11-27T00:00:00Z","tour_id":"3","longitude":"-118.18067","latitude":"33.83448","cartodb_id":181}},{"type":"Feature","geometry":{"type":"Point","coordinates":[-117.13917,32.82492]},"properties":{"date":"1965-05-17","tour":"The Rolling Stones 1st American Tour 1965","shows":"1","city":"San Diego","country":"US","venue":"Community Concourse Convention Hall","created_at":"2012-11-13T00:00:00Z","updated_at":"2012-11-27T00:00:00Z","tour_id":"3","longitude":"-117.13917","latitude":"32.82492","cartodb_id":182}},{"type":"Feature","geometry":{"type":"Point","coordinates":[-121.88557,37.33858]},"properties":{"date":"1965-05-21","tour":"The Rolling Stones 1st American Tour 1965","shows":"1","city":"San Jose","country":"US","venue":"Civic Auditorium","created_at":"2012-11-13T00:00:00Z","updated_at":"2012-11-27T00:00:00Z","tour_id":"3","longitude":"-121.88557","latitude":"37.33858","cartodb_id":183}},{"type":"Feature","geometry":{"type":"Point","coordinates":[-88.43375,42.73924]},"properties":{"date":"1989-09-11","tour":"Steel Wheels/Urban Jungle Tour","shows":"1","city":"East Troy","country":"US","venue":"Alpine Valley","created_at":"2012-11-13T00:00:00Z","updated_at":"2012-11-26T00:00:00Z","tour_id":"4","longitude":"-88.433754","latitude":"42.739245","cartodb_id":642}},{"type":"Feature","geometry":{"type":"Point","coordinates":[-120.45954,36.71993]},"properties":{"date":"1965-05-22","tour":"The Rolling Stones 1st American Tour 1965","shows":"1","city":"Fresno","country":"US","venue":"Ratcliffe Stadium Municipal Auditorium","created_at":"2012-11-13T00:00:00Z","updated_at":"2012-11-27T00:00:00Z","tour_id":"3","longitude":"-120.45954","latitude":"36.71993","cartodb_id":184}},{"type":"Feature","geometry":{"type":"Point","coordinates":[-121.45878,38.65392]},"properties":{"date":"1965-05-23","tour":"The Rolling Stones 1st American Tour 1965","shows":"1","city":"Sacramento","country":"US","venue":"Municipal Auditorium","created_at":"2012-11-13T00:00:00Z","updated_at":"2012-11-27T00:00:00Z","tour_id":"3","longitude":"-121.45878","latitude":"38.65392","cartodb_id":185}},{"type":"Feature","geometry":{"type":"Point","coordinates":[-87.61255,41.85132]},"properties":{"date":"1965-05-09","tour":"The Rolling Stones 1st American Tour 1965","shows":"1","city":"Chicago","country":"US","venue":"Arie Crown Theater","created_at":"2012-11-13T00:00:00Z","updated_at":"2012-11-27T00:00:00Z","tour_id":"3","longitude":"-87.61255","latitude":"41.85132","cartodb_id":186}},{"type":"Feature","geometry":{"type":"Point","coordinates":[-3.18072,51.48127]},"properties":{"date":"1965-09-28","tour":"The Rolling Stones 2nd British Tour 1965","shows":"2","city":"Cardiff","country":"Wales","venue":"Capitol Theatre","created_at":"2012-11-13T00:00:00Z","updated_at":"2012-11-26T00:00:00Z","tour_id":"22","longitude":"-3.18072","latitude":"51.48127","cartodb_id":187}},{"type":"Feature","geometry":{"type":"Point","coordinates":[-2.75122,52.7066]},"properties":{"date":"1965-09-29","tour":"The Rolling Stones 2nd British Tour 1965","shows":"2","city":"Shrewsbury","country":"England","venue":"Granada Theatre","created_at":"2012-11-13T00:00:00Z","updated_at":"2012-11-26T00:00:00Z","tour_id":"22","longitude":"-2.75122","latitude":"52.7066","cartodb_id":188}},{"type":"Feature","geometry":{"type":"Point","coordinates":[-2.18541,53.0252]},"properties":{"date":"1965-09-30","tour":"The Rolling Stones 2nd British Tour 1965","shows":"2","city":"Hanley","country":"England","venue":"Gaumont Theatre","created_at":"2012-11-13T00:00:00Z","updated_at":"2012-11-26T00:00:00Z","tour_id":"22","longitude":"-2.18541","latitude":"53.0252","cartodb_id":189}},{"type":"Feature","geometry":{"type":"Point","coordinates":[-2.88023,53.19113]},"properties":{"date":"1965-10-01","tour":"The Rolling Stones 2nd British Tour 1965","shows":"2","city":"Chester","country":"England","venue":"ABC Theatre","created_at":"2012-11-13T00:00:00Z","updated_at":"2012-11-26T00:00:00Z","tour_id":"22","longitude":"-2.880226","latitude":"53.191134","cartodb_id":190}},{"type":"Feature","geometry":{"type":"Point","coordinates":[-2.63303,53.5446]},"properties":{"date":"1965-10-02","tour":"The Rolling Stones 2nd British Tour 1965","shows":"2","city":"Wigan","country":"England","venue":"ABC Theatre","created_at":"2012-11-13T00:00:00Z","updated_at":"2012-11-26T00:00:00Z","tour_id":"22","longitude":"-2.63303","latitude":"53.5446","cartodb_id":191}},{"type":"Feature","geometry":{"type":"Point","coordinates":[-2.24102,53.47496]},"properties":{"date":"1965-10-03","tour":"The Rolling Stones 2nd British Tour 1965","shows":"2","city":"Manchester","country":"England","venue":"Odeon Theatre","created_at":"2012-11-13T00:00:00Z","updated_at":"2012-11-26T00:00:00Z","tour_id":"22","longitude":"-2.241024","latitude":"53.474956","cartodb_id":192}},{"type":"Feature","geometry":{"type":"Point","coordinates":[-1.75832,53.79573]},"properties":{"date":"1965-10-04","tour":"The Rolling Stones 2nd British Tour 1965","shows":"2","city":"Bradford","country":"England","venue":"Gaumont Theatre","created_at":"2012-11-13T00:00:00Z","updated_at":"2012-11-26T00:00:00Z","tour_id":"22","longitude":"-1.75832","latitude":"53.79573","cartodb_id":193}},{"type":"Feature","geometry":{"type":"Point","coordinates":[-2.93617,54.89651]},"properties":{"date":"1965-10-05","tour":"The Rolling Stones 2nd British Tour 1965","shows":"2","city":"Carlisle","country":"England","venue":"ABC Theatre","created_at":"2012-11-13T00:00:00Z","updated_at":"2012-11-26T00:00:00Z","tour_id":"22","longitude":"-2.93617","latitude":"54.89651","cartodb_id":194}},{"type":"Feature","geometry":{"type":"Point","coordinates":[-4.28662,55.85036]},"properties":{"date":"1965-10-06","tour":"The Rolling Stones 2nd British Tour 1965","shows":"2","city":"Glasgow","country":"\tScotland","venue":"Odeon Theatre","created_at":"2012-11-13T00:00:00Z","updated_at":"2012-11-26T00:00:00Z","tour_id":"22","longitude":"-4.28662","latitude":"55.85036","cartodb_id":195}},{"type":"Feature","geometry":{"type":"Point","coordinates":[-1.60999,54.97711]},"properties":{"date":"1965-10-07","tour":"The Rolling Stones 2nd British Tour 1965","shows":"2","city":"Newcastle","country":"England","venue":"City Hall","created_at":"2012-11-13T00:00:00Z","updated_at":"2012-11-26T00:00:00Z","tour_id":"22","longitude":"-1.60999","latitude":"54.97711","cartodb_id":196}},{"type":"Feature","geometry":{"type":"Point","coordinates":[-1.32929,54.57304]},"properties":{"date":"1965-10-08","tour":"The Rolling Stones 2nd British Tour 1965","shows":"2","city":"Stockton-on-Tees","country":"England","venue":"ABC Theatre","created_at":"2012-11-13T00:00:00Z","updated_at":"2012-11-26T00:00:00Z","tour_id":"22","longitude":"-1.32929","latitude":"54.57304","cartodb_id":197}},{"type":"Feature","geometry":{"type":"Point","coordinates":[-1.54149,53.79988]},"properties":{"date":"1965-10-09","tour":"The Rolling Stones 2nd British Tour 1965","shows":"2","city":"Leeds","country":"England","venue":"Odeon Theatre","created_at":"2012-11-13T00:00:00Z","updated_at":"2012-11-26T00:00:00Z","tour_id":"22","longitude":"-1.54149","latitude":"53.79988","cartodb_id":198}},{"type":"Feature","geometry":{"type":"Point","coordinates":[-2.97867,53.40901]},"properties":{"date":"1965-10-10","tour":"The Rolling Stones 2nd British Tour 1965","shows":"2","city":"Liverpool","country":"England","venue":"Empire Theatre","created_at":"2012-11-13T00:00:00Z","updated_at":"2012-11-26T00:00:00Z","tour_id":"22","longitude":"-2.97867","latitude":"53.40901","cartodb_id":199}},{"type":"Feature","geometry":{"type":"Point","coordinates":[-1.46454,53.38311]},"properties":{"date":"1965-10-11","tour":"The Rolling Stones 2nd British Tour 1965","shows":"2","city":"Sheffield","country":"England","venue":"Gaumont Theatre","created_at":"2012-11-13T00:00:00Z","updated_at":"2012-11-26T00:00:00Z","tour_id":"22","longitude":"-1.46454","latitude":"53.38311","cartodb_id":200}},{"type":"Feature","geometry":{"type":"Point","coordinates":[-1.06929,53.50291]},"properties":{"date":"1965-10-12","tour":"The Rolling Stones 2nd British Tour 1965","shows":"2","city":"Doncaster","country":"England","venue":"Gaumont Theatre","created_at":"2012-11-13T00:00:00Z","updated_at":"2012-11-26T00:00:00Z","tour_id":"22","longitude":"-1.06929","latitude":"53.50291","cartodb_id":201}},{"type":"Feature","geometry":{"type":"Point","coordinates":[-1.1205,52.62527]},"properties":{"date":"1965-10-13","tour":"The Rolling Stones 2nd British Tour 1965","shows":"2","city":"Leicester","country":"England","venue":"De Montfort Hall","created_at":"2012-11-13T00:00:00Z","updated_at":"2012-11-26T00:00:00Z","tour_id":"22","longitude":"-1.1205","latitude":"52.62527","cartodb_id":202}},{"type":"Feature","geometry":{"type":"Point","coordinates":[-1.84941,52.5262]},"properties":{"date":"1965-10-14","tour":"The Rolling Stones 2nd British Tour 1965","shows":"2","city":"Birmingham","country":"England","venue":"Odeon Theatre","created_at":"2012-11-13T00:00:00Z","updated_at":"2012-11-26T00:00:00Z","tour_id":"22","longitude":"-1.84941","latitude":"52.5262","cartodb_id":203}},{"type":"Feature","geometry":{"type":"Point","coordinates":[0.11147,52.2098]},"properties":{"date":"1965-10-15","tour":"The Rolling Stones 2nd British Tour 1965","shows":"2","city":"Cambridge","country":"England","venue":"Regal Theatre","created_at":"2012-11-13T00:00:00Z","updated_at":"2012-11-26T00:00:00Z","tour_id":"22","longitude":"0.11147","latitude":"52.2098","cartodb_id":204}},{"type":"Feature","geometry":{"type":"Point","coordinates":[-0.89528,52.23394]},"properties":{"date":"1965-10-16","tour":"The Rolling Stones 2nd British Tour 1965","shows":"2","city":"Northampton","country":"England","venue":"ABC Theatre","created_at":"2012-11-13T00:00:00Z","updated_at":"2012-11-26T00:00:00Z","tour_id":"22","longitude":"-0.89528","latitude":"52.23394","cartodb_id":205}},{"type":"Feature","geometry":{"type":"Point","coordinates":[-0.16711,51.42622]},"properties":{"date":"1965-10-17","tour":"The Rolling Stones 2nd British Tour 1965","shows":"2","city":"London","country":"England","venue":"Granada Theatre","created_at":"2012-11-13T00:00:00Z","updated_at":"2012-11-26T00:00:00Z","tour_id":"22","longitude":"-0.16711","latitude":"51.42622","cartodb_id":206}},{"type":"Feature","geometry":{"type":"Point","coordinates":[-73.58376,45.49003]},"properties":{"date":"1965-10-29","tour":"The Rolling Stones 2nd American Tour 1965","shows":"1","city":"Montreal","country":"\tCanada","venue":"Forum","created_at":"2012-11-13T00:00:00Z","updated_at":"2012-11-26T00:00:00Z","tour_id":"28","longitude":"-73.58376","latitude":"45.49003","cartodb_id":207}},{"type":"Feature","geometry":{"type":"Point","coordinates":[-79.38038,43.66197]},"properties":{"date":"1965-10-31","tour":"The Rolling Stones 2nd American Tour 1965","shows":"1","city":"Toronto","country":"\tCanada","venue":"Maple Leaf Gardens","created_at":"2012-11-13T00:00:00Z","updated_at":"2012-11-26T00:00:00Z","tour_id":"28","longitude":"-79.38038274","latitude":"43.66197344","cartodb_id":208}},{"type":"Feature","geometry":{"type":"Point","coordinates":[-74.09576,40.64401]},"properties":{"date":"1965-11-06","tour":"The Rolling Stones 2nd American Tour 1965","shows":"1","city":"New York","country":"US","venue":"Academy Of Music","created_at":"2012-11-13T00:00:00Z","updated_at":"2012-11-26T00:00:00Z","tour_id":"28","longitude":"-74.095763","latitude":"40.644012","cartodb_id":209}},{"type":"Feature","geometry":{"type":"Point","coordinates":[-77.03196,38.89037]},"properties":{"date":"1965-11-13","tour":"The Rolling Stones 2nd American Tour 1965","shows":"1","city":"Washington D.C.","country":"US","venue":"Coliseum","created_at":"2012-11-13T00:00:00Z","updated_at":"2012-11-26T00:00:00Z","tour_id":"28","longitude":"-77.03196","latitude":"38.89037","cartodb_id":210}},{"type":"Feature","geometry":{"type":"Point","coordinates":[-92.33249,38.93754]},"properties":{"date":"1994-09-18","tour":"Voodoo Lounge Tour","shows":"1","city":"Columbia","country":"US","venue":"Faurot Field","created_at":"2012-11-13T00:00:00Z","updated_at":"2012-11-26T00:00:00Z","tour_id":"30","longitude":"-92.33249","latitude":"38.93754","cartodb_id":211}},{"type":"Feature","geometry":{"type":"Point","coordinates":[-76.1278,43.1361]},"properties":{"date":"1965-10-30","tour":"The Rolling Stones 2nd American Tour 1965","shows":"1","city":"Syracuse","country":"US","venue":"War Memorial Hall","created_at":"2012-11-13T00:00:00Z","updated_at":"2012-11-27T00:00:00Z","tour_id":"28","longitude":"-76.1278","latitude":"43.1361","cartodb_id":212}},{"type":"Feature","geometry":{"type":"Point","coordinates":[-77.56619,43.14189]},"properties":{"date":"1965-10-01","tour":"The Rolling Stones 2nd American Tour 1965","shows":"1","city":"Rochester","country":"US","venue":"Memorial Auditorium","created_at":"2012-11-13T00:00:00Z","updated_at":"2012-11-27T00:00:00Z","tour_id":"28","longitude":"-77.56619","latitude":"43.14189","cartodb_id":213}},{"type":"Feature","geometry":{"type":"Point","coordinates":[-71.41199,41.82387]},"properties":{"date":"1965-11-03","tour":"The Rolling Stones 2nd American Tour 1965","shows":"1","city":"Providence","country":"US","venue":"Auditorium","created_at":"2012-11-13T00:00:00Z","updated_at":"2012-11-27T00:00:00Z","tour_id":"28","longitude":"-71.41199","latitude":"41.82387","cartodb_id":214}},{"type":"Feature","geometry":{"type":"Point","coordinates":[-72.68211,41.28829]},"properties":{"date":"1965-11-04","tour":"The Rolling Stones 2nd American Tour 1965","shows":"2","city":"New Haven","country":"US","venue":"Loews State Theater","created_at":"2012-11-13T00:00:00Z","updated_at":"2012-11-27T00:00:00Z","tour_id":"28","longitude":"-72.68211","latitude":"41.28829","cartodb_id":215}},{"type":"Feature","geometry":{"type":"Point","coordinates":[-71.0567,42.35863]},"properties":{"date":"1965-11-05","tour":"The Rolling Stones 2nd American Tour 1965","shows":"1","city":"Boston","country":"US","venue":"Gardens","created_at":"2012-11-13T00:00:00Z","updated_at":"2012-11-27T00:00:00Z","tour_id":"28","longitude":"-71.0567","latitude":"42.35863","cartodb_id":216}},{"type":"Feature","geometry":{"type":"Point","coordinates":[-75.15913,39.95446]},"properties":{"date":"1965-11-06","tour":"The Rolling Stones 2nd American Tour 1965","shows":"1","city":"Philadelphia","country":"US","venue":"Convention Hall","created_at":"2012-11-13T00:00:00Z","updated_at":"2012-11-27T00:00:00Z","tour_id":"28","longitude":"-75.15913","latitude":"39.95446","cartodb_id":217}},{"type":"Feature","geometry":{"type":"Point","coordinates":[-74.11877,40.69551]},"properties":{"date":"1965-11-07","tour":"The Rolling Stones 2nd American Tour 1965","shows":"2","city":"Newark","country":"US","venue":"Symphony Hall/Mosque Theater","created_at":"2012-11-13T00:00:00Z","updated_at":"2012-11-27T00:00:00Z","tour_id":"28","longitude":"-74.11877","latitude":"40.69551","cartodb_id":218}},{"type":"Feature","geometry":{"type":"Point","coordinates":[-78.66854,35.78379]},"properties":{"date":"1965-11-10","tour":"The Rolling Stones 2nd American Tour 1965","shows":"1","city":"Raleigh","country":"US","venue":"Reynolds Coliseum","created_at":"2012-11-13T00:00:00Z","updated_at":"2012-11-27T00:00:00Z","tour_id":"28","longitude":"-78.66854","latitude":"35.78379","cartodb_id":219}},{"type":"Feature","geometry":{"type":"Point","coordinates":[-79.82594,36.05848]},"properties":{"date":"1965-11-12","tour":"The Rolling Stones 2nd American Tour 1965","shows":"1","city":"Greensboro","country":"US","venue":"War Memorial Auditorium","created_at":"2012-11-13T00:00:00Z","updated_at":"2012-11-27T00:00:00Z","tour_id":"28","longitude":"-79.825944","latitude":"36.058485","cartodb_id":220}},{"type":"Feature","geometry":{"type":"Point","coordinates":[-76.77428,39.38133]},"properties":{"date":"1965-11-13","tour":"The Rolling Stones 2nd American Tour 1965","shows":"1","city":"Baltimore","country":"US","venue":"Civic Center","created_at":"2012-11-13T00:00:00Z","updated_at":"2012-11-27T00:00:00Z","tour_id":"28","longitude":"-76.77428","latitude":"39.38133","cartodb_id":221}},{"type":"Feature","geometry":{"type":"Point","coordinates":[-83.91173,35.96608]},"properties":{"date":"1965-11-14","tour":"The Rolling Stones 2nd American Tour 1965","shows":"1","city":"Knoxville","country":"US","venue":"Civic Coliseum Auditorium","created_at":"2012-11-13T00:00:00Z","updated_at":"2012-11-27T00:00:00Z","tour_id":"28","longitude":"-83.91173","latitude":"35.96608","cartodb_id":222}},{"type":"Feature","geometry":{"type":"Point","coordinates":[151.01344,-34.02548]},"properties":{"date":"1966-02-18","tour":"The Rolling Stones Australasian Tour 1966","shows":"2","city":"Sydney","country":"Australia","venue":"Commemorative Auditorium Showgrounds","created_at":"2012-11-13T00:00:00Z","updated_at":"2012-11-26T00:00:00Z","tour_id":"6","longitude":"151.01344","latitude":"-34.02548","cartodb_id":223}},{"type":"Feature","geometry":{"type":"Point","coordinates":[151.01344,-34.02548]},"properties":{"date":"1966-02-19","tour":"The Rolling Stones Australasian Tour 1966","shows":"2","city":"Sydney","country":"Australia","venue":"Commemorative Auditorium Showgrounds","created_at":"2012-11-13T00:00:00Z","updated_at":"2012-11-26T00:00:00Z","tour_id":"6","longitude":"151.01344","latitude":"-34.02548","cartodb_id":224}},{"type":"Feature","geometry":{"type":"Point","coordinates":[153.02348,-27.46896]},"properties":{"date":"1966-02-21","tour":"The Rolling Stones Australasian Tour 1966","shows":"2","city":"Brisbane","country":"Australia","venue":"City Hall","created_at":"2012-11-13T00:00:00Z","updated_at":"2012-11-26T00:00:00Z","tour_id":"6","longitude":"153.023478984833","latitude":"-27.4689638187856","cartodb_id":225}},{"type":"Feature","geometry":{"type":"Point","coordinates":[138.47351,-35.14851]},"properties":{"date":"1966-02-22","tour":"The Rolling Stones Australasian Tour 1966","shows":"2","city":"Adelaide","country":"Australia","venue":"Centennial Hall","created_at":"2012-11-13T00:00:00Z","updated_at":"2012-11-26T00:00:00Z","tour_id":"6","longitude":"138.47351","latitude":"-35.14851","cartodb_id":226}},{"type":"Feature","geometry":{"type":"Point","coordinates":[144.97898,-37.86751]},"properties":{"date":"1966-02-24","tour":"The Rolling Stones Australasian Tour 1966","shows":"2","city":"St Kilda","country":"Australia","venue":"Palais Theatre","created_at":"2012-11-13T00:00:00Z","updated_at":"2012-11-26T00:00:00Z","tour_id":"6","longitude":"144.97898","latitude":"-37.86751","cartodb_id":227}},{"type":"Feature","geometry":{"type":"Point","coordinates":[144.97898,-37.86751]},"properties":{"date":"1966-02-25","tour":"The Rolling Stones Australasian Tour 1966","shows":"2","city":"St Kilda","country":"Austraslia","venue":"Palais Theatre","created_at":"2012-11-13T00:00:00Z","updated_at":"2012-11-26T00:00:00Z","tour_id":"6","longitude":"144.97898","latitude":"-37.86751","cartodb_id":228}},{"type":"Feature","geometry":{"type":"Point","coordinates":[144.97603,-37.86754]},"properties":{"date":"1966-02-26","tour":"The Rolling Stones Australasian Tour 1966","shows":"2","city":"St Kilda","country":"Australia","venue":"Palais Theatre","created_at":"2012-11-13T00:00:00Z","updated_at":"2012-11-26T00:00:00Z","tour_id":"6","longitude":"144.9760262","latitude":"-37.86753532","cartodb_id":229}},{"type":"Feature","geometry":{"type":"Point","coordinates":[148.95563,-32.56869]},"properties":{"date":"1966-02-28","tour":"The Rolling Stones Australasian Tour 1966","shows":"2","city":"Wellington","country":"Australia","venue":"Town Hall","created_at":"2012-11-13T00:00:00Z","updated_at":"2012-11-26T00:00:00Z","tour_id":"6","longitude":"148.95563","latitude":"-32.56869","cartodb_id":230}},{"type":"Feature","geometry":{"type":"Point","coordinates":[174.76392,-36.85115]},"properties":{"date":"1966-03-01","tour":"The Rolling Stones Australasian Tour 1966","shows":"2","city":"Auckland","country":"New Zealand","venue":"Civic Theatre","created_at":"2012-11-13T00:00:00Z","updated_at":"2012-11-26T00:00:00Z","tour_id":"6","longitude":"174.7639172","latitude":"-36.85114561","cartodb_id":231}},{"type":"Feature","geometry":{"type":"Point","coordinates":[12.70598,56.0539]},"properties":{"date":"1967-03-25","tour":"The Rolling Stones European Tour 1967","shows":"2","city":"Helsingborg","country":"\tSweden","venue":"Idrottens Hus","created_at":"2012-11-13T00:00:00Z","updated_at":"2012-11-26T00:00:00Z","tour_id":"5","longitude":"12.705976","latitude":"56.053897","cartodb_id":232}},{"type":"Feature","geometry":{"type":"Point","coordinates":[15.21751,59.27074]},"properties":{"date":"1967-03-27","tour":"The Rolling Stones European Tour 1967","shows":"2","city":"Örebro","country":"\tSweden","venue":"Vinterstadium","created_at":"2012-11-13T00:00:00Z","updated_at":"2012-11-26T00:00:00Z","tour_id":"5","longitude":"15.21751","latitude":"59.27074","cartodb_id":233}},{"type":"Feature","geometry":{"type":"Point","coordinates":[6.95516,50.94167]},"properties":{"date":"1967-03-30","tour":"The Rolling Stones European Tour 1967","shows":"2","city":"Cologne","country":"Germany","venue":"Sporthalle","created_at":"2012-11-13T00:00:00Z","updated_at":"2012-11-26T00:00:00Z","tour_id":"5","longitude":"6.95516","latitude":"50.94167","cartodb_id":235}},{"type":"Feature","geometry":{"type":"Point","coordinates":[7.45396,51.50156]},"properties":{"date":"1967-03-31","tour":"The Rolling Stones European Tour 1967","shows":"1","city":"Dortmund","country":"Germany","venue":"Westfalenhalle","created_at":"2012-11-13T00:00:00Z","updated_at":"2012-11-26T00:00:00Z","tour_id":"5","longitude":"7.45396","latitude":"51.50156","cartodb_id":236}},{"type":"Feature","geometry":{"type":"Point","coordinates":[10.00633,53.55476]},"properties":{"date":"1967-04-01","tour":"The Rolling Stones European Tour 1967","shows":"2","city":"Hamburg","country":"Germany","venue":"Ernst-Merck-Halle","created_at":"2012-11-13T00:00:00Z","updated_at":"2012-11-26T00:00:00Z","tour_id":"5","longitude":"10.00633","latitude":"53.55476","cartodb_id":237}},{"type":"Feature","geometry":{"type":"Point","coordinates":[16.33174,48.20193]},"properties":{"date":"1967-04-02","tour":"The Rolling Stones European Tour 1967","shows":"2","city":"Vienna","country":"\tAustria","venue":"Stadthalle","created_at":"2012-11-13T00:00:00Z","updated_at":"2012-11-26T00:00:00Z","tour_id":"5","longitude":"16.33174","latitude":"48.20193","cartodb_id":238}},{"type":"Feature","geometry":{"type":"Point","coordinates":[-86.78122,36.16716]},"properties":{"date":"1965-11-16","tour":"The Rolling Stones 2nd American Tour 1965","shows":"1","city":"Nashville","country":"US","venue":"Municipal Auditorium","created_at":"2012-11-13T00:00:00Z","updated_at":"2012-11-27T00:00:00Z","tour_id":"28","longitude":"-86.78122","latitude":"36.16716","cartodb_id":239}},{"type":"Feature","geometry":{"type":"Point","coordinates":[-89.98129,35.1184]},"properties":{"date":"1965-11-17","tour":"The Rolling Stones 2nd American Tour 1965","shows":"1","city":"Memphis","country":"US","venue":"Mid-South Coliseum","created_at":"2012-11-13T00:00:00Z","updated_at":"2012-11-27T00:00:00Z","tour_id":"28","longitude":"-89.98129","latitude":"35.1184","cartodb_id":240}},{"type":"Feature","geometry":{"type":"Point","coordinates":[-93.78444,32.47006]},"properties":{"date":"1965-11-20","tour":"The Rolling Stones 2nd American Tour 1965","shows":"1","city":"Shreveport","country":"US","venue":"State Fair Youth Center","created_at":"2012-11-13T00:00:00Z","updated_at":"2012-11-27T00:00:00Z","tour_id":"28","longitude":"-93.78444","latitude":"32.47006","cartodb_id":241}},{"type":"Feature","geometry":{"type":"Point","coordinates":[-97.3669,32.74736]},"properties":{"date":"1965-11-21","tour":"The Rolling Stones 2nd American Tour 1965","shows":"1","city":"Fort Worth","country":"US","venue":"Will Rogers Memorial Center","created_at":"2012-11-13T00:00:00Z","updated_at":"2012-11-27T00:00:00Z","tour_id":"28","longitude":"-97.3669","latitude":"32.74736","cartodb_id":242}},{"type":"Feature","geometry":{"type":"Point","coordinates":[-95.8559,36.0435]},"properties":{"date":"1965-11-23","tour":"The Rolling Stones 2nd American Tour 1965","shows":"1","city":"Tulsa","country":"US","venue":"Assembly Center","created_at":"2012-11-13T00:00:00Z","updated_at":"2012-11-27T00:00:00Z","tour_id":"28","longitude":"-95.8559","latitude":"36.0435","cartodb_id":243}},{"type":"Feature","geometry":{"type":"Point","coordinates":[-79.98363,40.44762]},"properties":{"date":"1965-11-24","tour":"The Rolling Stones 2nd American Tour 1965","shows":"1","city":"Pittsburgh","country":"US","venue":"Civic Arena","created_at":"2012-11-13T00:00:00Z","updated_at":"2012-11-27T00:00:00Z","tour_id":"28","longitude":"-79.98363","latitude":"40.44762","cartodb_id":244}},{"type":"Feature","geometry":{"type":"Point","coordinates":[-87.90526,43.03881]},"properties":{"date":"1965-11-25","tour":"The Rolling Stones 2nd American Tour 1965","shows":"1","city":"Milwaukee","country":"US","venue":"Arena Auditorium","created_at":"2012-11-13T00:00:00Z","updated_at":"2012-11-27T00:00:00Z","tour_id":"28","longitude":"-87.90526","latitude":"43.03881","cartodb_id":245}},{"type":"Feature","geometry":{"type":"Point","coordinates":[-83.04982,42.32656]},"properties":{"date":"1965-11-26","tour":"The Rolling Stones 2nd American Tour 1965","shows":"1","city":"Detroit","country":"US","venue":"Cobo Hall","created_at":"2012-11-13T00:00:00Z","updated_at":"2012-11-27T00:00:00Z","tour_id":"28","longitude":"-83.04982","latitude":"42.32656","cartodb_id":246}},{"type":"Feature","geometry":{"type":"Point","coordinates":[-84.21356,39.80245]},"properties":{"date":"1965-11-27","tour":"The Rolling Stones 2nd American Tour 1965","shows":"1","city":"Dayton","country":"US","venue":"Wampler's Hara Arena","created_at":"2012-11-13T00:00:00Z","updated_at":"2012-11-27T00:00:00Z","tour_id":"28","longitude":"-84.21356","latitude":"39.80245","cartodb_id":247}},{"type":"Feature","geometry":{"type":"Point","coordinates":[-84.53281,39.11899]},"properties":{"date":"1965-11-27","tour":"The Rolling Stones 2nd American Tour 1965","shows":"1","city":"Cincinnati","country":"US","venue":"Cincinnati Gardens","created_at":"2012-11-13T00:00:00Z","updated_at":"2012-11-27T00:00:00Z","tour_id":"28","longitude":"-84.53281","latitude":"39.11899","cartodb_id":248}},{"type":"Feature","geometry":{"type":"Point","coordinates":[-87.61781,41.8515]},"properties":{"date":"1965-11-28","tour":"The Rolling Stones 2nd American Tour 1965","shows":"2","city":"Chicago","country":"US","venue":"Arie Crown Theater McCormick Place","created_at":"2012-11-13T00:00:00Z","updated_at":"2012-11-27T00:00:00Z","tour_id":"28","longitude":"-87.61781","latitude":"41.8515","cartodb_id":249}},{"type":"Feature","geometry":{"type":"Point","coordinates":[-104.9923,39.74001]},